var pointdata = {
   "type": "FeatureCollection",
   "features": [
  {
    "type": "Feature",
    "geometry": {
       "type": "Point",
       "coordinates":  [ 139.142853,37.948284 ]
    },	
    "properties": {
    "店名":"カジュアルレストラン MOKA",
    "ジャンル":"その他",
    "区域":"北区",
    "住所":"新潟市北区松浜本町 2-14-18",
    "店コード":191,
    "電話番号":"025-259-7949",
    "テイクアウト":"有り",
    "デリバリー":"有り"
    }
  },
  {
    "type": "Feature",
    "geometry": {
       "type": "Point",
       "coordinates":  [ 139.215515,37.918266 ]
    },
    "properties": {
    "店名":"旬彩末留田",
    "ジャンル":"和食",
    "区域":"北区",
    "住所":"新潟市北区白新町 2-11-17",
    "店コード":263,
    "電話番号":"025-386-7550",
    "テイクアウト":"有り",
    "デリバリー":"無し"
    }
  },
  {
    "type": "Feature",
    "geometry": {
       "type": "Point",
       "coordinates":  [ 139.210129,37.920517 ]
    },
    "properties": {
    "店名":"春夏秋冬豊栄店",
    "ジャンル":"居酒屋",
    "区域":"北区",
    "住所":"新潟市北区柳原 2-9-15",
    "店コード":285,
    "電話番号":"025-290-7722",
    "テイクアウト":"有り",
    "デリバリー":"無し"
    }
  },
  {
    "type": "Feature",
    "geometry": {
       "type": "Point",
       "coordinates":  [ 139.216736,37.918999 ]
    },
    "properties": {
    "店名":"炭火料理ゆめどり亭",
    "ジャンル":"居酒屋",
    "区域":"北区",
    "住所":"新潟市北区白新町 1-10-13",
    "店コード":411,
    "電話番号":"025-388-9545",
    "テイクアウト":"有り",
    "デリバリー":"無し"
    }
  },
  {
    "type": "Feature",
    "geometry": {
       "type": "Point",
       "coordinates":  [ 139.212585,37.921299 ]
    },
    "properties": {
    "店名":"frank's dinner & dining",
    "ジャンル":"洋食",
    "区域":"北区",
    "住所":"新潟市北区石動 1-17-6",
    "店コード":456,
    "電話番号":"025-250-6722",
    "テイクアウト":"無し",
    "デリバリー":"無し"
    }
  },
  {
    "type": "Feature",
    "geometry": {
       "type": "Point",
       "coordinates":  [ 139.242249,37.936291 ]
    },
    "properties": {
    "店名":"食堂・居酒屋麺大誠",
    "ジャンル":"ラーメン",
    "区域":"北区",
    "住所":"新潟市北区太田 2250",
    "店コード":464,
    "電話番号":"025-387-3249",
    "テイクアウト":"有り",
    "デリバリー":"無し"
    }
  },
  {
    "type": "Feature",
    "geometry": {
       "type": "Point",
       "coordinates":  [ 139.211426,37.918026 ]
    },
    "properties": {
    "店名":"Usa De Pals",
    "ジャンル":"居酒屋",
    "区域":"北区",
    "住所":"新潟市北区柳原 1-9-11",
    "店コード":477,
    "電話番号":"025-388-1255",
    "テイクアウト":"有り",
    "デリバリー":"無し"
    }
  },
  {
    "type": "Feature",
    "geometry": {
       "type": "Point",
       "coordinates":  [ 139.218582,37.928936 ]
    },
    "properties": {
    "店名":"海転すし誠豊栄店",
    "ジャンル":"寿司",
    "区域":"北区",
    "住所":"新潟市北区かぶとやま 2-1-62",
    "店コード":488,
    "電話番号":"025-385-6115",
    "テイクアウト":"有り",
    "デリバリー":"無し"
    }
  },
  {
    "type": "Feature",
    "geometry": {
       "type": "Point",
       "coordinates":  [ 139.2173,37.91803 ]
    },
    "properties": {
    "店名":"円来",
    "ジャンル":"中華",
    "区域":"北区",
    "住所":"新潟市北区白新町 1-9-24",
    "店コード":531,
    "電話番号":"025-387-2278",
    "テイクアウト":"有り",
    "デリバリー":"無し"
    }
  },
  {
    "type": "Feature",
    "geometry": {
       "type": "Point",
       "coordinates":  [ 139.15213,37.953407 ]
    },
    "properties": {
    "店名":"奥次郎さくら亭",
    "ジャンル":"割烹",
    "区域":"北区",
    "住所":"新潟市北区松浜東町 2-4-80",
    "店コード":599,
    "電話番号":"025-259-2040",
    "テイクアウト":"有り",
    "デリバリー":"無し"
    }
  },
  {
    "type": "Feature",
    "geometry": {
       "type": "Point",
       "coordinates":  [ 139.15213,37.953407 ]
    },
    "properties": {
    "店名":"和風レストラン奥次郎",
    "ジャンル":"和食",
    "区域":"北区",
    "住所":"新潟市北区松浜東町 2-4-80",
    "店コード":600,
    "電話番号":"025-258-3555",
    "テイクアウト":"有り",
    "デリバリー":"無し"
    }
  },
  {
    "type": "Feature",
    "geometry": {
       "type": "Point",
       "coordinates":  [ 139.15213,37.953407 ]
    },
    "properties": {
    "店名":"海鮮家さぶ郎",
    "ジャンル":"居酒屋",
    "区域":"北区",
    "住所":"新潟市北区松浜東町 2-4-80",
    "店コード":601,
    "電話番号":"025-258-5040",
    "テイクアウト":"有り",
    "デリバリー":"無し"
    }
  },
  {
    "type": "Feature",
    "geometry": {
       "type": "Point",
       "coordinates":  [ 139.214752,37.917679 ]
    },
    "properties": {
    "店名":"鳥安",
    "ジャンル":"和食",
    "区域":"北区",
    "住所":"新潟市北区白新町 2-12-3",
    "店コード":608,
    "電話番号":"025-387-5283",
    "テイクアウト":"有り",
    "デリバリー":"有り"
    }
  },
  {
    "type": "Feature",
    "geometry": {
       "type": "Point",
       "coordinates":  [ 139.217163,37.915314 ]
    },
    "properties": {
    "店名":"トラットリアノラ・クチーナ豊 栄本店",
    "ジャンル":"イタリアン",
    "区域":"北区",
    "住所":"新潟市北区葛塚 3223",
    "店コード":616,
    "電話番号":"025-387-5200",
    "テイクアウト":"有り",
    "デリバリー":"有り"
    }
  },
  {
    "type": "Feature",
    "geometry": {
       "type": "Point",
       "coordinates":  [ 139.206894,37.919548 ]
    },
    "properties": {
    "店名":"三宝亭豊栄店",
    "ジャンル":"ラーメン",
    "区域":"北区",
    "住所":"新潟市北区葛塚 1260",
    "店コード":652,
    "電話番号":"025-388-3360",
    "テイクアウト":"有り",
    "デリバリー":"無し"
    }
  },
  {
    "type": "Feature",
    "geometry": {
       "type": "Point",
       "coordinates":  [ 139.075333,37.904194 ]
    },
    "properties": {
    "店名":"こがね鮨",
    "ジャンル":"寿司",
    "区域":"東区",
    "住所":"新潟市東区紫竹 5-1-1",
    "店コード":2,
    "電話番号":"025-246-0032",
    "テイクアウト":"有り",
    "デリバリー":"有り"
    }
  },
  {
    "type": "Feature",
    "geometry": {
       "type": "Point",
       "coordinates":  [ 139.093414,37.905701 ]
    },
    "properties": {
    "店名":"ナチュラルレストランかたやま",
    "ジャンル":"和食",
    "区域":"東区",
    "住所":"新潟市東区卸新町 3-16-31 ナチュレ片 山 2F",
    "店コード":10,
    "電話番号":"025-270-2088",
    "テイクアウト":"無し",
    "デリバリー":"無し"
    }
  },
  {
    "type": "Feature",
    "geometry": {
       "type": "Point",
       "coordinates":  [ 139.116348,37.931492 ]
    },
    "properties": {
    "店名":"サーティワンアイスクリーム新 潟東ロードサイド店",
    "ジャンル":"ファストフード",
    "区域":"東区",
    "住所":"新潟市東区新松崎 1-7-5",
    "店コード":29,
    "電話番号":"025-279-3100",
    "テイクアウト":"有り",
    "デリバリー":"無し"
    }
  },
  {
    "type": "Feature",
    "geometry": {
       "type": "Point",
       "coordinates":  [ 139.116348,37.931492 ]
    },
    "properties": {
    "店名":"焼肉ざおう新潟東店",
    "ジャンル":"その他",
    "区域":"東区",
    "住所":"新潟市東区新松崎 1-107-14",
    "店コード":163,
    "電話番号":"025-384-4670",
    "テイクアウト":"有り",
    "デリバリー":"無し"
    }
  },
  {
    "type": "Feature",
    "geometry": {
       "type": "Point",
       "coordinates":  [ 139.105942,37.903225 ]
    },
    "properties": {
    "店名":"廻鮮丸寿司石山店",
    "ジャンル":"寿司",
    "区域":"東区",
    "住所":"新潟市東区下場本町 3-38",
    "店コード":183,
    "電話番号":"025-277-3115",
    "テイクアウト":"有り",
    "デリバリー":"無し"
    }
  },
  {
    "type": "Feature",
    "geometry": {
       "type": "Point",
       "coordinates":  [ 139.116745,37.954742 ]
    },
    "properties": {
    "店名":"海堂",
    "ジャンル":"喫茶",
    "区域":"東区",
    "住所":"新潟市東区松浜町 3710",
    "店コード":190,
    "電話番号":"025-275-2635",
    "テイクアウト":"無し",
    "デリバリー":"無し"
    }
  },
  {
    "type": "Feature",
    "geometry": {
       "type": "Point",
       "coordinates":  [ 139.116745,37.954742 ]
    },
    "properties": {
    "店名":"新々軒",
    "ジャンル":"ラーメン",
    "区域":"東区",
    "住所":"新潟市東区松浜町 3710 新潟空港",
    "店コード":208,
    "電話番号":"025-275-3451",
    "テイクアウト":"無し",
    "デリバリー":"無し"
    }
  },
  {
    "type": "Feature",
    "geometry": {
       "type": "Point",
       "coordinates":  [ 139.093262,37.923977 ]
    },
    "properties": {
    "店名":"居酒屋下町食堂",
    "ジャンル":"居酒屋",
    "区域":"東区",
    "住所":"新潟市東区牡丹山 3-1-1 ソロモンビル １Ｆ",
    "店コード":214,
    "電話番号":"025-385-6378",
    "テイクアウト":"有り",
    "デリバリー":"有り"
    }
  },
  {
    "type": "Feature",
    "geometry": {
       "type": "Point",
       "coordinates":  [ 139.113892,37.93446 ]
    },
    "properties": {
    "店名":"石焼ステーキ贅松崎店",
    "ジャンル":"洋食",
    "区域":"東区",
    "住所":"新潟市東区松崎 1-19-26",
    "店コード":234,
    "電話番号":"025-272-2220",
    "テイクアウト":"有り",
    "デリバリー":"無し"
    }
  },
  {
    "type": "Feature",
    "geometry": {
       "type": "Point",
       "coordinates":  [ 139.114716,37.923557 ]
    },
    "properties": {
    "店名":"春夏秋冬東店",
    "ジャンル":"居酒屋",
    "区域":"東区",
    "住所":"新潟市東区逢谷内 6-9-22",
    "店コード":284,
    "電話番号":"025-256-8680",
    "テイクアウト":"有り",
    "デリバリー":"無し"
    }
  },
  {
    "type": "Feature",
    "geometry": {
       "type": "Point",
       "coordinates":  [ 139.103972,37.931913 ]
    },
    "properties": {
    "店名":"ポポラマーマ河渡マーケットシ ティ店",
    "ジャンル":"イタリアン",
    "区域":"東区",
    "住所":"新潟市東区河渡庚 ２４０-1",
    "店コード":326,
    "電話番号":"025-374-6616",
    "テイクアウト":"有り",
    "デリバリー":"無し"
    }
  },
  {
    "type": "Feature",
    "geometry": {
       "type": "Point",
       "coordinates":  [ 139.116745,37.954742 ]
    },
    "properties": {
    "店名":"エアリウムラウンジ",
    "ジャンル":"その他",
    "区域":"東区",
    "住所":"新潟市東区松浜町 3710",
    "店コード":339,
    "電話番号":"025-275-2621",
    "テイクアウト":"無し",
    "デリバリー":"無し"
    }
  },
  {
    "type": "Feature",
    "geometry": {
       "type": "Point",
       "coordinates":  [ 139.112259,37.934959 ]
    },
    "properties": {
    "店名":"来来亭新潟松崎店",
    "ジャンル":"ラーメン",
    "区域":"東区",
    "住所":"新潟市東区松崎 1-1008-1 来来亭新潟 松崎店",
    "店コード":354,
    "電話番号":"025-271-8883",
    "テイクアウト":"有り",
    "デリバリー":"無し"
    }
  },
  {
    "type": "Feature",
    "geometry": {
       "type": "Point",
       "coordinates":  [ 139.129257,37.923859 ]
    },
    "properties": {
    "店名":"新潟自動車学校レストラン",
    "ジャンル":"その他",
    "区域":"東区",
    "住所":"新潟市東区海老ケ瀬 474-1",
    "店コード":366,
    "電話番号":"025-272-5555",
    "テイクアウト":"有り",
    "デリバリー":"無し"
    }
  },
  {
    "type": "Feature",
    "geometry": {
       "type": "Point",
       "coordinates":  [ 139.096573,37.942322 ]
    },
    "properties": {
    "店名":"和の匠みやむら",
    "ジャンル":"和食",
    "区域":"東区",
    "住所":"新潟市東区物見山 1-14-25",
    "店コード":374,
    "電話番号":"025-250-8055",
    "テイクアウト":"有り",
    "デリバリー":"無し"
    }
  },
  {
    "type": "Feature",
    "geometry": {
       "type": "Point",
       "coordinates":  [ 139.070557,37.942242 ]
    },
    "properties": {
    "店名":"シルバースカイ",
    "ジャンル":"その他",
    "区域":"東区",
    "住所":"新潟市東区松浜町 3710 新潟空港ター ミナルビル 3 階",
    "店コード":409,
    "電話番号":"025-275-2603",
    "テイクアウト":"無し",
    "デリバリー":"無し"
    }
  },
  {
    "type": "Feature",
    "geometry": {
       "type": "Point",
       "coordinates":  [ 139.099365,37.925518 ]
    },
    "properties": {
    "店名":"メッツゲライテラ",
    "ジャンル":"喫茶",
    "区域":"東区",
    "住所":"新潟市東区中木戸 50-4",
    "店コード":438,
    "電話番号":"025-256-8464",
    "テイクアウト":"有り",
    "デリバリー":"無し"
    }
  },
  {
    "type": "Feature",
    "geometry": {
       "type": "Point",
       "coordinates":  [ 139.092148,37.917763 ]
    },
    "properties": {
    "店名":"とんかつ政ちゃん牡丹山店",
    "ジャンル":"和食",
    "区域":"東区",
    "住所":"新潟市東区牡丹山 1-25-12",
    "店コード":492,
    "電話番号":"025-256-6215",
    "テイクアウト":"有り",
    "デリバリー":"無し"
    }
  },
  {
    "type": "Feature",
    "geometry": {
       "type": "Point",
       "coordinates":  [ 139.110001,37.934143 ]
    },
    "properties": {
    "店名":"新潟かつ丼政家松崎店",
    "ジャンル":"和食",
    "区域":"東区",
    "住所":"新潟市東区松崎 863-1",
    "店コード":500,
    "電話番号":"025-288-6700",
    "テイクアウト":"有り",
    "デリバリー":"無し"
    }
  },
  {
    "type": "Feature",
    "geometry": {
       "type": "Point",
       "coordinates":  [ 139.117096,37.931435 ]
    },
    "properties": {
    "店名":"越後茶屋松崎店",
    "ジャンル":"和食",
    "区域":"東区",
    "住所":"新潟市東区新松崎 2-2-3",
    "店コード":560,
    "電話番号":"025-279-4039",
    "テイクアウト":"有り",
    "デリバリー":"無し"
    }
  },
  {
    "type": "Feature",
    "geometry": {
       "type": "Point",
       "coordinates":  [ 139.097809,37.925644 ]
    },
    "properties": {
    "店名":"地鳥庵中木戸店",
    "ジャンル":"居酒屋",
    "区域":"東区",
    "住所":"新潟市東区中木戸 56-1",
    "店コード":564,
    "電話番号":"025-270-8694",
    "テイクアウト":"有り",
    "デリバリー":"無し"
    }
  },
  {
    "type": "Feature",
    "geometry": {
       "type": "Point",
       "coordinates":  [ 139.101547,37.931572 ]
    },
    "properties": {
    "店名":"三宝茶楼河渡店",
    "ジャンル":"中華",
    "区域":"東区",
    "住所":"新潟市東区河渡庚 135-1 マーケットシ ティ河渡",
    "店コード":644,
    "電話番号":"025-272-8333",
    "テイクアウト":"有り",
    "デリバリー":"有り"
    }
  },
  {
    "type": "Feature",
    "geometry": {
       "type": "Point",
       "coordinates":  [ 139.087265,37.937981 ]
    },
    "properties": {
    "店名":"三宝亭赤道錦町店",
    "ジャンル":"ラーメン",
    "区域":"東区",
    "住所":"新潟市東区錦町 5-57",
    "店コード":651,
    "電話番号":"025-272-3433",
    "テイクアウト":"有り",
    "デリバリー":"有り"
    }
  },
  {
    "type": "Feature",
    "geometry": {
       "type": "Point",
       "coordinates":  [ 139.0448,37.924988 ]
    },
    "properties": {
    "店名":"鳥梅西堀店",
    "ジャンル":"居酒屋",
    "区域":"中央区",
    "住所":"新潟市中央区西堀前通 8-1525",
    "店コード":1,
    "電話番号":"025-229-0186",
    "テイクアウト":"有り",
    "デリバリー":"無し"
    }
  },
  {
    "type": "Feature",
    "geometry": {
       "type": "Point",
       "coordinates":  [ 139.062347,37.914169 ]
    },
    "properties": {
    "店名":"和が家",
    "ジャンル":"居酒屋",
    "区域":"中央区",
    "住所":"新潟市中央区東大通 1-5-7",
    "店コード":4,
    "電話番号":"025-247-1085",
    "テイクアウト":"有り",
    "デリバリー":"無し"
    }
  },
  {
    "type": "Feature",
    "geometry": {
       "type": "Point",
       "coordinates":  [ 139.045944,37.92527 ]
    },
    "properties": {
    "店名":"港すし",
    "ジャンル":"寿司",
    "区域":"中央区",
    "住所":"新潟市中央区古町通 9-1454",
    "店コード":7,
    "電話番号":"025-222-3710",
    "テイクアウト":"有り",
    "デリバリー":"有り"
    }
  },
  {
    "type": "Feature",
    "geometry": {
       "type": "Point",
       "coordinates":  [ 139.086807,37.894234 ]
    },
    "properties": {
    "店名":"和の心菓匠庵",
    "ジャンル":"和食",
    "区域":"中央区",
    "住所":"新潟市中央区姥ケ山 2-27-23",
    "店コード":8,
    "電話番号":"025-286-3413",
    "テイクアウト":"有り",
    "デリバリー":"無し"
    }
  },
  {
    "type": "Feature",
    "geometry": {
       "type": "Point",
       "coordinates":  [ 139.053085,37.881832 ]
    },
    "properties": {
    "店名":"やさい茶屋",
    "ジャンル":"和食",
    "区域":"中央区",
    "住所":"新潟市中央区清五郎 123",
    "店コード":13,
    "電話番号":"025-287-3150",
    "テイクアウト":"有り",
    "デリバリー":"有り"
    }
  },
  {
    "type": "Feature",
    "geometry": {
       "type": "Point",
       "coordinates":  [ 139.037735,37.915577 ]
    },
    "properties": {
    "店名":"グリル有壬",
    "ジャンル":"洋食",
    "区域":"中央区",
    "住所":"新潟市中央区旭町通 1-757 有壬記念館 1F",
    "店コード":17,
    "電話番号":"025-222-8885",
    "テイクアウト":"無し",
    "デリバリー":"無し"
    }
  },
  {
    "type": "Feature",
    "geometry": {
       "type": "Point",
       "coordinates":  [ 139.051117,37.920017 ]
    },
    "properties": {
    "店名":"和食や彦",
    "ジャンル":"和食",
    "区域":"中央区",
    "住所":"新潟市中央区川端町 6-53 ホテルオー クラ新潟",
    "店コード":18,
    "電話番号":"025-224-6130",
    "テイクアウト":"有り",
    "デリバリー":"無し"
    }
  },
  {
    "type": "Feature",
    "geometry": {
       "type": "Point",
       "coordinates":  [ 139.051117,37.920017 ]
    },
    "properties": {
    "店名":"中国料理桃花林",
    "ジャンル":"中華",
    "区域":"中央区",
    "住所":"新潟市中央区川端町 6-53 ホテルオー クラ新潟",
    "店コード":19,
    "電話番号":"025-224-6150",
    "テイクアウト":"有り",
    "デリバリー":"無し"
    }
  },
  {
    "type": "Feature",
    "geometry": {
       "type": "Point",
       "coordinates":  [ 139.051117,37.920017 ]
    },
    "properties": {
    "店名":"バーエジンバラ",
    "ジャンル":"その他",
    "区域":"中央区",
    "住所":"新潟市中央区川端町 6-53 ホテルオー クラ新潟",
    "店コード":20,
    "電話番号":"025-224-6168",
    "テイクアウト":"無し",
    "デリバリー":"無し"
    }
  },
  {
    "type": "Feature",
    "geometry": {
       "type": "Point",
       "coordinates":  [ 139.051117,37.920017 ]
    },
    "properties": {
    "店名":"レストランスターライト",
    "ジャンル":"フレンチ",
    "区域":"中央区",
    "住所":"新潟市中央区川端町 6-53 ホテルオー クラ新潟",
    "店コード":21,
    "電話番号":"025-224-6160",
    "テイクアウト":"無し",
    "デリバリー":"無し"
    }
  },
  {
    "type": "Feature",
    "geometry": {
       "type": "Point",
       "coordinates":  [ 139.051117,37.920017 ]
    },
    "properties": {
    "店名":"ティーラウンジラ・しなの",
    "ジャンル":"喫茶",
    "区域":"中央区",
    "住所":"新潟市中央区川端町 6-53 ホテルオー クラ新潟",
    "店コード":22,
    "電話番号":"025-224-6111",
    "テイクアウト":"無し",
    "デリバリー":"無し"
    }
  },
  {
    "type": "Feature",
    "geometry": {
       "type": "Point",
       "coordinates":  [ 139.051117,37.920017 ]
    },
    "properties": {
    "店名":"バイキングレストランつばき",
    "ジャンル":"洋食",
    "区域":"中央区",
    "住所":"新潟市中央区川端町 6-53 ホテルオー クラ新潟",
    "店コード":23,
    "電話番号":"025-224-6167",
    "テイクアウト":"有り",
    "デリバリー":"無し"
    }
  },
  {
    "type": "Feature",
    "geometry": {
       "type": "Point",
       "coordinates":  [ 139.059357,37.90929 ]
    },
    "properties": {
    "店名":"Irish Pub Robin",
    "ジャンル":"その他",
    "区域":"中央区",
    "住所":"新潟市中央区天神 1-19-9 ING ビル 2F",
    "店コード":24,
    "電話番号":"025-241-6677",
    "テイクアウト":"有り",
    "デリバリー":"無し"
    }
  },
  {
    "type": "Feature",
    "geometry": {
       "type": "Point",
       "coordinates":  [ 139.070068,37.907822 ]
    },
    "properties": {
    "店名":"サーティワンアイスクリーム南 笹口店",
    "ジャンル":"ファストフード",
    "区域":"中央区",
    "住所":"新潟市中央区南笹口 2-3-46",
    "店コード":30,
    "電話番号":"025-241-3139",
    "テイクアウト":"有り",
    "デリバリー":"無し"
    }
  },
  {
    "type": "Feature",
    "geometry": {
       "type": "Point",
       "coordinates":  [ 139.046051,37.933941 ]
    },
    "properties": {
    "店名":"サーティワンアイスクリーム新 潟万代ラブラ 2 店",
    "ジャンル":"ファストフード",
    "区域":"中央区",
    "住所":"新潟市中央区万代 1-4-8 ラブラ 2",
    "店コード":31,
    "電話番号":"025-282-7731",
    "テイクアウト":"有り",
    "デリバリー":"無し"
    }
  },
  {
    "type": "Feature",
    "geometry": {
       "type": "Point",
       "coordinates":  [ 139.030472,37.892681 ]
    },
    "properties": {
    "店名":"サーティワンアイスクリーム女 池店",
    "ジャンル":"ファストフード",
    "区域":"中央区",
    "住所":"新潟市中央区女池上山 2-1-10",
    "店コード":32,
    "電話番号":"025-281-3100",
    "テイクアウト":"有り",
    "デリバリー":"無し"
    }
  },
  {
    "type": "Feature",
    "geometry": {
       "type": "Point",
       "coordinates":  [ 139.037735,37.915577 ]
    },
    "properties": {
    "店名":"呑処十三夜",
    "ジャンル":"居酒屋",
    "区域":"中央区",
    "住所":"新潟市中央区東大通 1-5-10 松原第一 ビル 3F",
    "店コード":44,
    "電話番号":"025-244-0138",
    "テイクアウト":"有り",
    "デリバリー":"無し"
    }
  },
  {
    "type": "Feature",
    "geometry": {
       "type": "Point",
       "coordinates":  [ 139.056168,37.918686 ]
    },
    "properties": {
    "店名":"四川飯店新潟",
    "ジャンル":"中華",
    "区域":"中央区",
    "住所":"新潟市中央区万代 3-1-1 メディアシッ プ 2F",
    "店コード":46,
    "電話番号":"025-240-0050",
    "テイクアウト":"有り",
    "デリバリー":"有り"
    }
  },
  {
    "type": "Feature",
    "geometry": {
       "type": "Point",
       "coordinates":  [ 139.037735,37.915577 ]
    },
    "properties": {
    "店名":"越後一会十郎",
    "ジャンル":"居酒屋",
    "区域":"中央区",
    "住所":"新潟市中央区東大通 2-1-7 松屋ビル 1F",
    "店コード":47,
    "電話番号":"025-247-5106",
    "テイクアウト":"有り",
    "デリバリー":"無し"
    }
  },
  {
    "type": "Feature",
    "geometry": {
       "type": "Point",
       "coordinates":  [ 139.06601,37.914478 ]
    },
    "properties": {
    "店名":"Spanish ＆ Oyster マリスコ",
    "ジャンル":"居酒屋",
    "区域":"中央区",
    "住所":"新潟市中央区花園 1-2-2 コープシティ 花園ガレッソ 2F",
    "店コード":48,
    "電話番号":"025-278-3956",
    "テイクアウト":"有り",
    "デリバリー":"無し"
    }
  },
  {
    "type": "Feature",
    "geometry": {
       "type": "Point",
       "coordinates":  [ 139.058426,37.916298 ]
    },
    "properties": {
    "店名":"肉料理専門ワインバル NIQ",
    "ジャンル":"その他",
    "区域":"中央区",
    "住所":"新潟市中央区弁天 2-4-19",
    "店コード":49,
    "電話番号":"025-282-5529",
    "テイクアウト":"有り",
    "デリバリー":"無し"
    }
  },
  {
    "type": "Feature",
    "geometry": {
       "type": "Point",
       "coordinates":  [ 139.063995,37.914116 ]
    },
    "properties": {
    "店名":"焼肉バル焼 NIQ",
    "ジャンル":"その他",
    "区域":"中央区",
    "住所":"新潟市中央区花園 1-6-11 GEO 花園 1F",
    "店コード":50,
    "電話番号":"025-384-4129",
    "テイクアウト":"有り",
    "デリバリー":"無し"
    }
  },
  {
    "type": "Feature",
    "geometry": {
       "type": "Point",
       "coordinates":  [ 139.053909,37.917858 ]
    },
    "properties": {
    "店名":"マテリアルカフェ万代店",
    "ジャンル":"喫茶",
    "区域":"中央区",
    "住所":"新潟市中央区万代 1-6-1 万代バスセン タービル 2F",
    "店コード":51,
    "電話番号":"025-385-6066",
    "テイクアウト":"有り",
    "デリバリー":"無し"
    }
  },
  {
    "type": "Feature",
    "geometry": {
       "type": "Point",
       "coordinates":  [ 139.060455,37.913544 ]
    },
    "properties": {
    "店名":"焼肉たっちゃん",
    "ジャンル":"その他",
    "区域":"中央区",
    "住所":"新潟市中央区東大通 1-11-12 パルコミ ニオンビル 1F",
    "店コード":59,
    "電話番号":"025-245-4941",
    "テイクアウト":"有り",
    "デリバリー":"無し"
    }
  },
  {
    "type": "Feature",
    "geometry": {
       "type": "Point",
       "coordinates":  [ 139.020462,37.894764 ]
    },
    "properties": {
    "店名":"越後十日町小嶋屋新潟店",
    "ジャンル":"和食",
    "区域":"中央区",
    "住所":"新潟市中央区網川原 1-21-8",
    "店コード":67,
    "電話番号":"025-283-3104",
    "テイクアウト":"有り",
    "デリバリー":"無し"
    }
  },
  {
    "type": "Feature",
    "geometry": {
       "type": "Point",
       "coordinates":  [ 139.041687,37.918102 ]
    },
    "properties": {
    "店名":"西堀じゅんちゃん",
    "ジャンル":"居酒屋",
    "区域":"中央区",
    "住所":"新潟市中央区西堀前通 3-724-2",
    "店コード":74,
    "電話番号":"025-225-8812",
    "テイクアウト":"無し",
    "デリバリー":"無し"
    }
  },
  {
    "type": "Feature",
    "geometry": {
       "type": "Point",
       "coordinates":  [ 139.05632,37.910034 ]
    },
    "properties": {
    "店名":"ICHIE",
    "ジャンル":"居酒屋",
    "区域":"中央区",
    "住所":"新潟市中央区天神 2-137-37",
    "店コード":84,
    "電話番号":"025-255-0112",
    "テイクアウト":"有り",
    "デリバリー":"有り"
    }
  },
  {
    "type": "Feature",
    "geometry": {
       "type": "Point",
       "coordinates":  [ 139.058914,37.913544 ]
    },
    "properties": {
    "店名":"えびす鯛新潟駅前店",
    "ジャンル":"居酒屋",
    "区域":"中央区",
    "住所":"新潟市中央区弁天 1-3-3",
    "店コード":85,
    "電話番号":"025-255-5522",
    "テイクアウト":"有り",
    "デリバリー":"有り"
    }
  },
  {
    "type": "Feature",
    "geometry": {
       "type": "Point",
       "coordinates":  [ 139.037735,37.915577 ]
    },
    "properties": {
    "店名":"花柚子",
    "ジャンル":"和食",
    "区域":"中央区",
    "住所":"新潟市中央区東大通 1-5-10 松原第一 ビル 3 階",
    "店コード":98,
    "電話番号":"025-385-7973",
    "テイクアウト":"無し",
    "デリバリー":"無し"
    }
  },
  {
    "type": "Feature",
    "geometry": {
       "type": "Point",
       "coordinates":  [ 139.059967,37.914242 ]
    },
    "properties": {
    "店名":"富寿し新潟駅前店",
    "ジャンル":"寿司",
    "区域":"中央区",
    "住所":"新潟市中央区東大通 1-2-5",
    "店コード":109,
    "電話番号":"025-242-1212",
    "テイクアウト":"有り",
    "デリバリー":"無し"
    }
  },
  {
    "type": "Feature",
    "geometry": {
       "type": "Point",
       "coordinates":  [ 139.05629,37.915974 ]
    },
    "properties": {
    "店名":"富寿し新潟万代店",
    "ジャンル":"寿司",
    "区域":"中央区",
    "住所":"新潟市中央区万代 1-3-1 万代シネモー ル7階",
    "店コード":114,
    "電話番号":"025-246-7878",
    "テイクアウト":"有り",
    "デリバリー":"無し"
    }
  },
  {
    "type": "Feature",
    "geometry": {
       "type": "Point",
       "coordinates":  [ 138.985687,37.712666 ]
    },
    "properties": {
    "店名":"富寿し膳",
    "ジャンル":"寿司",
    "区域":"中央区",
    "住所":"新潟市中央区川端町 6-53 ホテルオー クラ新潟 3F",
    "店コード":115,
    "電話番号":"025-224-6361",
    "テイクアウト":"有り",
    "デリバリー":"無し"
    }
  },
  {
    "type": "Feature",
    "geometry": {
       "type": "Point",
       "coordinates":  [ 139.037735,37.915577 ]
    },
    "properties": {
    "店名":"極 DINING 若旦那新潟駅前店",
    "ジャンル":"居酒屋",
    "区域":"中央区",
    "住所":"新潟市中央区花園 1-5-9 ベロウ花園 1F",
    "店コード":117,
    "電話番号":"025-243-5900",
    "テイクアウト":"有り",
    "デリバリー":"有り"
    }
  },
  {
    "type": "Feature",
    "geometry": {
       "type": "Point",
       "coordinates":  [ 139.054459,37.906925 ]
    },
    "properties": {
    "店名":"極 DINING 若旦那新潟駅南店",
    "ジャンル":"居酒屋",
    "区域":"中央区",
    "住所":"新潟市中央区米山 1-9-3 鈴木ビル 1F",
    "店コード":118,
    "電話番号":"025-384-4365",
    "テイクアウト":"有り",
    "デリバリー":"有り"
    }
  },
  {
    "type": "Feature",
    "geometry": {
       "type": "Point",
       "coordinates":  [ 139.037735,37.915577 ]
    },
    "properties": {
    "店名":"極 DINING 若旦那別邸",
    "ジャンル":"居酒屋",
    "区域":"中央区",
    "住所":"新潟市中央区花園 1-7-10 ホテルリブ マックス 1F",
    "店コード":119,
    "電話番号":"025-250-7745",
    "テイクアウト":"有り",
    "デリバリー":"有り"
    }
  },
  {
    "type": "Feature",
    "geometry": {
       "type": "Point",
       "coordinates":  [ 139.038315,37.929607 ]
    },
    "properties": {
    "店名":"極 DINING 若旦那新潟駅前弁天 通り店",
    "ジャンル":"居酒屋",
    "区域":"中央区",
    "住所":"新潟市中央区東大通 1-2-8 河竹ビル 2F",
    "店コード":120,
    "電話番号":"025-384-8909",
    "テイクアウト":"有り",
    "デリバリー":"有り"
    }
  },
  {
    "type": "Feature",
    "geometry": {
       "type": "Point",
       "coordinates":  [ 139.037735,37.915577 ]
    },
    "properties": {
    "店名":"PublicStand 新潟駅前店",
    "ジャンル":"その他",
    "区域":"中央区",
    "住所":"新 潟 市 中 央 区 弁 天 1-2-15 2nd 弁 天 ING ビル 1F",
    "店コード":122,
    "電話番号":"025-278-8080",
    "テイクアウト":"無し",
    "デリバリー":"無し"
    }
  },
  {
    "type": "Feature",
    "geometry": {
       "type": "Point",
       "coordinates":  [ 139.053909,37.917858 ]
    },
    "properties": {
    "店名":"MR.&MRS.CAFE",
    "ジャンル":"喫茶",
    "区域":"中央区",
    "住所":"新潟市中央区万代 1-3-1 万代シネモー ルビル 2F",
    "店コード":123,
    "電話番号":"025-278-8544",
    "テイクアウト":"有り",
    "デリバリー":"有り"
    }
  },
  {
    "type": "Feature",
    "geometry": {
       "type": "Point",
       "coordinates":  [ 139.038315,37.929607 ]
    },
    "properties": {
    "店名":"SandwichBox",
    "ジャンル":"喫茶",
    "区域":"中央区",
    "住所":"新潟市中央区東大通 2-2-9 トーカン万 代第二ビューハイツ 102",
    "店コード":124,
    "電話番号":"025-384-0099",
    "テイクアウト":"有り",
    "デリバリー":"有り"
    }
  },
  {
    "type": "Feature",
    "geometry": {
       "type": "Point",
       "coordinates":  [ 139.064133,37.911831 ]
    },
    "properties": {
    "店名":"海鮮家葱ぼうず",
    "ジャンル":"居酒屋",
    "区域":"中央区",
    "住所":"新潟市中央区笹口 1-10-1",
    "店コード":149,
    "電話番号":"025-240-6363",
    "テイクアウト":"有り",
    "デリバリー":"有り"
    }
  },
  {
    "type": "Feature",
    "geometry": {
       "type": "Point",
       "coordinates":  [ 139.04569,37.923764 ]
    },
    "properties": {
    "店名":"海老の髭",
    "ジャンル":"居酒屋",
    "区域":"中央区",
    "住所":"新潟市中央区古町通八番町 1433-2",
    "店コード":150,
    "電話番号":"025-210-8507",
    "テイクアウト":"有り",
    "デリバリー":"有り"
    }
  },
  {
    "type": "Feature",
    "geometry": {
       "type": "Point",
       "coordinates":  [ 139.063995,37.914116 ]
    },
    "properties": {
    "店名":"串カツ田中新潟駅前店",
    "ジャンル":"居酒屋",
    "区域":"中央区",
    "住所":"新潟市中央区花園 1-6-1",
    "店コード":153,
    "電話番号":"025-278-7068",
    "テイクアウト":"有り",
    "デリバリー":"有り"
    }
  },
  {
    "type": "Feature",
    "geometry": {
       "type": "Point",
       "coordinates":  [ 139.052795,37.912025 ]
    },
    "properties": {
    "店名":"Restaurant ISO",
    "ジャンル":"フレンチ",
    "区域":"中央区",
    "住所":"新潟市中央区春日町 7-13",
    "店コード":155,
    "電話番号":"025-290-7330",
    "テイクアウト":"無し",
    "デリバリー":"無し"
    }
  },
  {
    "type": "Feature",
    "geometry": {
       "type": "Point",
       "coordinates":  [ 139.065033,37.911156 ]
    },
    "properties": {
    "店名":"よさこい駅南店",
    "ジャンル":"居酒屋",
    "区域":"中央区",
    "住所":"新潟市中央区笹口 1-18-15",
    "店コード":169,
    "電話番号":"025-246-3955",
    "テイクアウト":"有り",
    "デリバリー":"無し"
    }
  },
  {
    "type": "Feature",
    "geometry": {
       "type": "Point",
       "coordinates":  [ 139.06601,37.914478 ]
    },
    "properties": {
    "店名":"大衆酒場天下二",
    "ジャンル":"居酒屋",
    "区域":"中央区",
    "住所":"新潟市中央区花園 1-2-2 コープシティ 花園ガレッソ２階",
    "店コード":170,
    "電話番号":"025-241-0309",
    "テイクアウト":"有り",
    "デリバリー":"無し"
    }
  },
  {
    "type": "Feature",
    "geometry": {
       "type": "Point",
       "coordinates":  [ 139.064377,37.911629 ]
    },
    "properties": {
    "店名":"越乃赤たぬき駅南店",
    "ジャンル":"居酒屋",
    "区域":"中央区",
    "住所":"新潟市中央区笹口 1-13-2",
    "店コード":171,
    "電話番号":"025-241-5596",
    "テイクアウト":"有り",
    "デリバリー":"無し"
    }
  },
  {
    "type": "Feature",
    "geometry": {
       "type": "Point",
       "coordinates":  [ 139.058746,37.914051 ]
    },
    "properties": {
    "店名":"越乃赤たぬき弁天店",
    "ジャンル":"居酒屋",
    "区域":"中央区",
    "住所":"新潟市中央区弁天 1-4-23",
    "店コード":172,
    "電話番号":"025-244-6988",
    "テイクアウト":"有り",
    "デリバリー":"無し"
    }
  },
  {
    "type": "Feature",
    "geometry": {
       "type": "Point",
       "coordinates":  [ 139.045547,37.92384 ]
    },
    "properties": {
    "店名":"よさ来い古町店",
    "ジャンル":"居酒屋",
    "区域":"中央区",
    "住所":"新潟市中央区古町通 8-1430",
    "店コード":173,
    "電話番号":"025-224-6884",
    "テイクアウト":"有り",
    "デリバリー":"無し"
    }
  },
  {
    "type": "Feature",
    "geometry": {
       "type": "Point",
       "coordinates":  [ 139.044418,37.921608 ]
    },
    "properties": {
    "店名":"越乃赤たぬき古町店",
    "ジャンル":"居酒屋",
    "区域":"中央区",
    "住所":"新潟市中央区古町通 6-955",
    "店コード":174,
    "電話番号":"025-225-4925",
    "テイクアウト":"有り",
    "デリバリー":"無し"
    }
  },
  {
    "type": "Feature",
    "geometry": {
       "type": "Point",
       "coordinates":  [ 139.037735,37.915577 ]
    },
    "properties": {
    "店名":"大衆酒蔵立呑み天下一",
    "ジャンル":"居酒屋",
    "区域":"中央区",
    "住所":"新潟市中央区花園 1-2-2 コープシティ 花園ガレッソ１階",
    "店コード":175,
    "電話番号":"025-243-4525",
    "テイクアウト":"有り",
    "デリバリー":"無し"
    }
  },
  {
    "type": "Feature",
    "geometry": {
       "type": "Point",
       "coordinates":  [ 139.018295,37.906799 ]
    },
    "properties": {
    "店名":"廻鮮丸寿司関屋店",
    "ジャンル":"寿司",
    "区域":"中央区",
    "住所":"新潟市中央区関新 3-4-35",
    "店コード":184,
    "電話番号":"025-232-3322",
    "テイクアウト":"有り",
    "デリバリー":"無し"
    }
  },
  {
    "type": "Feature",
    "geometry": {
       "type": "Point",
       "coordinates":  [ 139.062347,37.914169 ]
    },
    "properties": {
    "店名":"いかの墨新潟駅前店",
    "ジャンル":"居酒屋",
    "区域":"中央区",
    "住所":"新潟市中央区東大通 1-5-24",
    "店コード":193,
    "電話番号":"025-242-0510",
    "テイクアウト":"有り",
    "デリバリー":"有り"
    }
  },
  {
    "type": "Feature",
    "geometry": {
       "type": "Point",
       "coordinates":  [ 139.047211,37.925476 ]
    },
    "properties": {
    "店名":"割烹大善",
    "ジャンル":"割烹",
    "区域":"中央区",
    "住所":"新潟市中央区東堀前通 9-1386",
    "店コード":198,
    "電話番号":"025-228-1916",
    "テイクアウト":"有り",
    "デリバリー":"無し"
    }
  },
  {
    "type": "Feature",
    "geometry": {
       "type": "Point",
       "coordinates":  [ 139.045349,37.92318 ]
    },
    "properties": {
    "店名":"須坂屋そば古町店",
    "ジャンル":"和食",
    "区域":"中央区",
    "住所":"新潟市中央区古町通 7-1002-2",
    "店コード":199,
    "電話番号":"025-224-4710",
    "テイクアウト":"有り",
    "デリバリー":"無し"
    }
  },
  {
    "type": "Feature",
    "geometry": {
       "type": "Point",
       "coordinates":  [ 139.058746,37.914051 ]
    },
    "properties": {
    "店名":"須坂屋そば新潟駅前店",
    "ジャンル":"和食",
    "区域":"中央区",
    "住所":"新潟市中央区弁天 1-4-29 ＩＭＡビル",
    "店コード":200,
    "電話番号":"025-241-7705",
    "テイクアウト":"有り",
    "デリバリー":"無し"
    }
  },
  {
    "type": "Feature",
    "geometry": {
       "type": "Point",
       "coordinates":  [ 139.062866,37.913746 ]
    },
    "properties": {
    "店名":"一軒め酒場新潟駅前店",
    "ジャンル":"居酒屋",
    "区域":"中央区",
    "住所":"新潟市中央区花園 1-3-2 ＩＭＡビルⅡ",
    "店コード":201,
    "電話番号":"025-250-7530",
    "テイクアウト":"有り",
    "デリバリー":"無し"
    }
  },
  {
    "type": "Feature",
    "geometry": {
       "type": "Point",
       "coordinates":  [ 139.061859,37.915203 ]
    },
    "properties": {
    "店名":"一軒め酒場新潟東大通店",
    "ジャンル":"居酒屋",
    "区域":"中央区",
    "住所":"新潟市中央区東大通 1-7-2 村信ビル",
    "店コード":202,
    "電話番号":"025-282-7071",
    "テイクアウト":"有り",
    "デリバリー":"無し"
    }
  },
  {
    "type": "Feature",
    "geometry": {
       "type": "Point",
       "coordinates":  [ 139.063995,37.914116 ]
    },
    "properties": {
    "店名":"La Fattoria",
    "ジャンル":"イタリアン",
    "区域":"中央区",
    "住所":"新潟市中央区花園 1-6-29 ワタシンビ ル２Ｆ",
    "店コード":210,
    "電話番号":"025-250-7883",
    "テイクアウト":"有り",
    "デリバリー":"無し"
    }
  },
  {
    "type": "Feature",
    "geometry": {
       "type": "Point",
       "coordinates":  [ 139.059402,37.91317 ]
    },
    "properties": {
    "店名":"レストラン エル ドラド（ホ テルグローバルビュー新潟）",
    "ジャンル":"洋食",
    "区域":"中央区",
    "住所":"新潟市中央区弁天 1-2-4",
    "店コード":213,
    "電話番号":"025-244-5151",
    "テイクアウト":"有り",
    "デリバリー":"無し"
    }
  },
  {
    "type": "Feature",
    "geometry": {
       "type": "Point",
       "coordinates":  [ 139.045715,37.924438 ]
    },
    "properties": {
    "店名":"五郎古町店",
    "ジャンル":"居酒屋",
    "区域":"中央区",
    "住所":"新潟市中央区古町通 8-1446 一蔵ビル １Ｆ",
    "店コード":215,
    "電話番号":"025-229-5379",
    "テイクアウト":"無し",
    "デリバリー":"無し"
    }
  },
  {
    "type": "Feature",
    "geometry": {
       "type": "Point",
       "coordinates":  [ 139.059158,37.908623 ]
    },
    "properties": {
    "店名":"新潟風物詩ももふく",
    "ジャンル":"和食",
    "区域":"中央区",
    "住所":"新潟市中央区米山 2-3-4",
    "店コード":220,
    "電話番号":"025-245-0029",
    "テイクアウト":"無し",
    "デリバリー":"無し"
    }
  },
  {
    "type": "Feature",
    "geometry": {
       "type": "Point",
       "coordinates":  [ 139.049179,37.921547 ]
    },
    "properties": {
    "店名":"ビストロ椿",
    "ジャンル":"洋食",
    "区域":"中央区",
    "住所":"新潟市中央区花町 1981-1",
    "店コード":223,
    "電話番号":"025-226-7007",
    "テイクアウト":"有り",
    "デリバリー":"有り"
    }
  },
  {
    "type": "Feature",
    "geometry": {
       "type": "Point",
       "coordinates":  [ 139.055161,37.897167 ]
    },
    "properties": {
    "店名":"ステーキのさるーん桜木店",
    "ジャンル":"洋食",
    "区域":"中央区",
    "住所":"新潟市中央区神道寺 2-5-7",
    "店コード":232,
    "電話番号":"025-248-1729",
    "テイクアウト":"有り",
    "デリバリー":"無し"
    }
  },
  {
    "type": "Feature",
    "geometry": {
       "type": "Point",
       "coordinates":  [ 139.037735,37.915577 ]
    },
    "properties": {
    "店名":"焼肉ライク新潟駅前店",
    "ジャンル":"その他",
    "区域":"中央区",
    "住所":"新潟市中央区東大通 1-7-7 ＩＭＡⅢ－ １Ｆ",
    "店コード":241,
    "電話番号":"025-243-8929",
    "テイクアウト":"有り",
    "デリバリー":"有り"
    }
  },
  {
    "type": "Feature",
    "geometry": {
       "type": "Point",
       "coordinates":  [ 139.058868,37.916069 ]
    },
    "properties": {
    "店名":"日本料理花のめ",
    "ジャンル":"和食",
    "区域":"中央区",
    "住所":"新潟市中央区東大通 1-2-12 ホクユウ ビル３Ｆ",
    "店コード":242,
    "電話番号":"025-241-1703",
    "テイクアウト":"無し",
    "デリバリー":"無し"
    }
  },
  {
    "type": "Feature",
    "geometry": {
       "type": "Point",
       "coordinates":  [ 139.042938,37.920879 ]
    },
    "properties": {
    "店名":"カフェダイニングラ・ジット",
    "ジャンル":"洋食",
    "区域":"中央区",
    "住所":"新潟市中央区西堀通 5-833-3",
    "店コード":243,
    "電話番号":"025-211-8812",
    "テイクアウト":"有り",
    "デリバリー":"無し"
    }
  },
  {
    "type": "Feature",
    "geometry": {
       "type": "Point",
       "coordinates":  [ 139.059509,37.914982 ]
    },
    "properties": {
    "店名":"鮨花いち１階",
    "ジャンル":"寿司",
    "区域":"中央区",
    "住所":"新潟市中央区東大通 1-2-12 ホクユウ ビル１Ｆ",
    "店コード":244,
    "電話番号":"025-241-1701",
    "テイクアウト":"有り",
    "デリバリー":"無し"
    }
  },
  {
    "type": "Feature",
    "geometry": {
       "type": "Point",
       "coordinates":  [ 139.045135,37.924313 ]
    },
    "properties": {
    "店名":"鉄板備長炭火焼ジョー",
    "ジャンル":"居酒屋",
    "区域":"中央区",
    "住所":"新潟市中央区古町通 8-1504 江部ビル １Ｆ",
    "店コード":245,
    "電話番号":"025-222-2567",
    "テイクアウト":"有り",
    "デリバリー":"有り"
    }
  },
  {
    "type": "Feature",
    "geometry": {
       "type": "Point",
       "coordinates":  [ 139.040451,37.916576 ]
    },
    "properties": {
    "店名":"オーベルジュ古町",
    "ジャンル":"フレンチ",
    "区域":"中央区",
    "住所":"新潟市中央区古町通二番町 669-2 ダイ アパレス古町１Ｆ",
    "店コード":247,
    "電話番号":"025-228-5242",
    "テイクアウト":"有り",
    "デリバリー":"無し"
    }
  },
  {
    "type": "Feature",
    "geometry": {
       "type": "Point",
       "coordinates":  [ 139.059219,37.915527 ]
    },
    "properties": {
    "店名":"鮨花いち２階",
    "ジャンル":"寿司",
    "区域":"中央区",
    "住所":"新潟市中央区東大通 1-2-12 ホクユウ ビル２Ｆ",
    "店コード":248,
    "電話番号":"025-241-1702",
    "テイクアウト":"有り",
    "デリバリー":"無し"
    }
  },
  {
    "type": "Feature",
    "geometry": {
       "type": "Point",
       "coordinates":  [ 139.046249,37.924114 ]
    },
    "properties": {
    "店名":"権十楼古町店",
    "ジャンル":"居酒屋",
    "区域":"中央区",
    "住所":"新潟市中央区東堀通八番町 1429 ホテ ルクラウンヒルズ新潟２階",
    "店コード":250,
    "電話番号":"025-378-4531",
    "テイクアウト":"有り",
    "デリバリー":"無し"
    }
  },
  {
    "type": "Feature",
    "geometry": {
       "type": "Point",
       "coordinates":  [ 139.058472,37.912296 ]
    },
    "properties": {
    "店名":"ほっこり居酒屋瓢膳",
    "ジャンル":"居酒屋",
    "区域":"中央区",
    "住所":"新潟市中央区弁天 2-3-35 コートホテ ル１階",
    "店コード":255,
    "電話番号":"025-248-6543",
    "テイクアウト":"有り",
    "デリバリー":"無し"
    }
  },
  {
    "type": "Feature",
    "geometry": {
       "type": "Point",
       "coordinates":  [ 139.058868,37.916069 ]
    },
    "properties": {
    "店名":"五郎万代店",
    "ジャンル":"居酒屋",
    "区域":"中央区",
    "住所":"新潟市中央区東大通 2-3-15 2F",
    "店コード":256,
    "電話番号":"025-241-5601",
    "テイクアウト":"無し",
    "デリバリー":"無し"
    }
  },
  {
    "type": "Feature",
    "geometry": {
       "type": "Point",
       "coordinates":  [ 139.036697,37.927288 ]
    },
    "properties": {
    "店名":"かくれや空間夜座和",
    "ジャンル":"和食",
    "区域":"中央区",
    "住所":"新潟市中央区出来島 2-14-16 アルゴ天 神山 1 階 C",
    "店コード":259,
    "電話番号":"025-281-0830",
    "テイクアウト":"有り",
    "デリバリー":"無し"
    }
  },
  {
    "type": "Feature",
    "geometry": {
       "type": "Point",
       "coordinates":  [ 139.058105,37.912704 ]
    },
    "properties": {
    "店名":"駅前漁港",
    "ジャンル":"居酒屋",
    "区域":"中央区",
    "住所":"新潟市中央区弁天 1-3-29",
    "店コード":280,
    "電話番号":"025-244-8555",
    "テイクアウト":"有り",
    "デリバリー":"無し"
    }
  },
  {
    "type": "Feature",
    "geometry": {
       "type": "Point",
       "coordinates":  [ 139.037735,37.915577 ]
    },
    "properties": {
    "店名":"駅前漁港炙りや",
    "ジャンル":"居酒屋",
    "区域":"中央区",
    "住所":"新潟市中央区花園 1-5-5 鳴海ビル 1 階",
    "店コード":281,
    "電話番号":"025-248-9555",
    "テイクアウト":"有り",
    "デリバリー":"無し"
    }
  },
  {
    "type": "Feature",
    "geometry": {
       "type": "Point",
       "coordinates":  [ 139.060806,37.909214 ]
    },
    "properties": {
    "店名":"FISHERMAN'S MARKET OYSTERBAR",
    "ジャンル":"洋食",
    "区域":"中央区",
    "住所":"新潟市中央区米山 1-7-8",
    "店コード":288,
    "電話番号":"025-282-7791",
    "テイクアウト":"有り",
    "デリバリー":"無し"
    }
  },
  {
    "type": "Feature",
    "geometry": {
       "type": "Point",
       "coordinates":  [ 139.045395,37.919434 ]
    },
    "properties": {
    "店名":"BISTRO MARQUE",
    "ジャンル":"フレンチ",
    "区域":"中央区",
    "住所":"新潟市中央区東堀前通 5-417-1 トーカ ンマンション東堀 1F",
    "店コード":290,
    "電話番号":"025-201-9507",
    "テイクアウト":"有り",
    "デリバリー":"無し"
    }
  },
  {
    "type": "Feature",
    "geometry": {
       "type": "Point",
       "coordinates":  [ 139.056168,37.918686 ]
    },
    "properties": {
    "店名":"西洋料理屋ダンスィングドール",
    "ジャンル":"洋食",
    "区域":"中央区",
    "住所":"新潟市中央区万代 1-3-30 万代シルバー ホテル内 4 階",
    "店コード":301,
    "電話番号":"025-247-5728",
    "テイクアウト":"無し",
    "デリバリー":"無し"
    }
  },
  {
    "type": "Feature",
    "geometry": {
       "type": "Point",
       "coordinates":  [ 139.045944,37.923084 ]
    },
    "properties": {
    "店名":"新潟ジョイアミーア",
    "ジャンル":"イタリアン",
    "区域":"中央区",
    "住所":"新潟市中央区東堀通 7 番町 1016-1",
    "店コード":302,
    "電話番号":"025-224-2588",
    "テイクアウト":"無し",
    "デリバリー":"無し"
    }
  },
  {
    "type": "Feature",
    "geometry": {
       "type": "Point",
       "coordinates":  [ 139.061783,37.929565 ]
    },
    "properties": {
    "店名":"佐渡汽船商事ときわ丸スナック",
    "ジャンル":"軽食",
    "区域":"中央区",
    "住所":"新潟市中央区万代島 9-1 ときわ丸船内",
    "店コード":305,
    "電話番号":"025-245-0211",
    "テイクアウト":"無し",
    "デリバリー":"無し"
    }
  },
  {
    "type": "Feature",
    "geometry": {
       "type": "Point",
       "coordinates":  [ 139.061783,37.929565 ]
    },
    "properties": {
    "店名":"佐渡汽船商事おけさ丸スナック",
    "ジャンル":"軽食",
    "区域":"中央区",
    "住所":"新潟市中央区万代島 9-1 おけさ丸船内",
    "店コード":306,
    "電話番号":"025-245-0211",
    "テイクアウト":"無し",
    "デリバリー":"無し"
    }
  },
  {
    "type": "Feature",
    "geometry": {
       "type": "Point",
       "coordinates":  [ 139.061783,37.929565 ]
    },
    "properties": {
    "店名":"佐渡汽船商事立ち食い処しおさ い",
    "ジャンル":"軽食",
    "区域":"中央区",
    "住所":"新潟市中央区万代島 9-1",
    "店コード":309,
    "電話番号":"025-245-0211",
    "テイクアウト":"無し",
    "デリバリー":"無し"
    }
  },
  {
    "type": "Feature",
    "geometry": {
       "type": "Point",
       "coordinates":  [ 139.033234,37.914314 ]
    },
    "properties": {
    "店名":"ピーア軒",
    "ジャンル":"洋食",
    "区域":"中央区",
    "住所":"新潟市中央区白山浦 1-631",
    "店コード":311,
    "電話番号":"025-266-1661",
    "テイクアウト":"有り",
    "デリバリー":"有り"
    }
  },
  {
    "type": "Feature",
    "geometry": {
       "type": "Point",
       "coordinates":  [ 139.072678,37.88483 ]
    },
    "properties": {
    "店名":"ステーキハウスうすい牧場",
    "ジャンル":"洋食",
    "区域":"中央区",
    "住所":"新潟市中央区南長潟 15-5",
    "店コード":314,
    "電話番号":"025-287-2621",
    "テイクアウト":"有り",
    "デリバリー":"無し"
    }
  },
  {
    "type": "Feature",
    "geometry": {
       "type": "Point",
       "coordinates":  [ 139.059967,37.914242 ]
    },
    "properties": {
    "店名":"はなの舞新潟駅前店",
    "ジャンル":"居酒屋",
    "区域":"中央区",
    "住所":"新潟市中央区東大通 1-1-16 堀川ビル 2F",
    "店コード":323,
    "電話番号":"025-255-5411",
    "テイクアウト":"無し",
    "デリバリー":"無し"
    }
  },
  {
    "type": "Feature",
    "geometry": {
       "type": "Point",
       "coordinates":  [ 139.037735,37.915577 ]
    },
    "properties": {
    "店名":"紅虎餃子房新潟店",
    "ジャンル":"中華",
    "区域":"中央区",
    "住所":"新潟市中央区東大通 1-7-10 新潟セン トラルビル 1F",
    "店コード":324,
    "電話番号":"025-385-7667",
    "テイクアウト":"有り",
    "デリバリー":"無し"
    }
  },
  {
    "type": "Feature",
    "geometry": {
       "type": "Point",
       "coordinates":  [ 139.04567,37.926231 ]
    },
    "properties": {
    "店名":"味の店ふくゐろ",
    "ジャンル":"割烹",
    "区域":"中央区",
    "住所":"新潟市中央区古町通 9-1474",
    "店コード":325,
    "電話番号":"025-222-5110",
    "テイクアウト":"無し",
    "デリバリー":"無し"
    }
  },
  {
    "type": "Feature",
    "geometry": {
       "type": "Point",
       "coordinates":  [ 139.058914,37.913544 ]
    },
    "properties": {
    "店名":"団欒炎新潟駅前店",
    "ジャンル":"居酒屋",
    "区域":"中央区",
    "住所":"新潟市中央区弁天 1-1-26 オセオ弁天 3F",
    "店コード":327,
    "電話番号":"025-242-0655",
    "テイクアウト":"無し",
    "デリバリー":"無し"
    }
  },
  {
    "type": "Feature",
    "geometry": {
       "type": "Point",
       "coordinates":  [ 139.023987,37.897316 ]
    },
    "properties": {
    "店名":"ポポラマーマ出来島店",
    "ジャンル":"イタリアン",
    "区域":"中央区",
    "住所":"新潟市中央区南出来島 2-8-17",
    "店コード":328,
    "電話番号":"025-378-6701",
    "テイクアウト":"有り",
    "デリバリー":"無し"
    }
  },
  {
    "type": "Feature",
    "geometry": {
       "type": "Point",
       "coordinates":  [ 139.058105,37.912704 ]
    },
    "properties": {
    "店名":"新潟土筆",
    "ジャンル":"イタリアン",
    "区域":"中央区",
    "住所":"新潟市中央区弁天 3-3-5 新潟マンショ ン 106",
    "店コード":331,
    "電話番号":"025-243-4599",
    "テイクアウト":"無し",
    "デリバリー":"無し"
    }
  },
  {
    "type": "Feature",
    "geometry": {
       "type": "Point",
       "coordinates":  [ 139.045547,37.92384 ]
    },
    "properties": {
    "店名":"酒と肴のぶ",
    "ジャンル":"居酒屋",
    "区域":"中央区",
    "住所":"新潟市中央区古町通八番町 1437-6 加 藤ビル 2F",
    "店コード":335,
    "電話番号":"025-228-7576",
    "テイクアウト":"無し",
    "デリバリー":"無し"
    }
  },
  {
    "type": "Feature",
    "geometry": {
       "type": "Point",
       "coordinates":  [ 139.064346,37.908268 ]
    },
    "properties": {
    "店名":"しゃぶ鍋ビュッフェ NS+",
    "ジャンル":"その他",
    "区域":"中央区",
    "住所":"新潟市中央区南笹口 1-1-1 ひもろぎビ ル 2F",
    "店コード":340,
    "電話番号":"025-288-5501",
    "テイクアウト":"無し",
    "デリバリー":"無し"
    }
  },
  {
    "type": "Feature",
    "geometry": {
       "type": "Point",
       "coordinates":  [ 139.06073,37.909405 ]
    },
    "properties": {
    "店名":"張園けやき通り店",
    "ジャンル":"中華",
    "区域":"中央区",
    "住所":"新潟市中央区米山 1-8-1",
    "店コード":343,
    "電話番号":"025-247-2275",
    "テイクアウト":"有り",
    "デリバリー":"有り"
    }
  },
  {
    "type": "Feature",
    "geometry": {
       "type": "Point",
       "coordinates":  [ 139.044205,37.920845 ]
    },
    "properties": {
    "店名":"居酒屋らくちゃん",
    "ジャンル":"居酒屋",
    "区域":"中央区",
    "住所":"新潟市中央区古町通 6 番町 965-1 古町 ビル 2F-A",
    "店コード":353,
    "電話番号":"025-211-6001",
    "テイクアウト":"無し",
    "デリバリー":"無し"
    }
  },
  {
    "type": "Feature",
    "geometry": {
       "type": "Point",
       "coordinates":  [ 139.040207,37.915443 ]
    },
    "properties": {
    "店名":"レストランキリン",
    "ジャンル":"洋食",
    "区域":"中央区",
    "住所":"新潟市中央区一番堀通町 513",
    "店コード":380,
    "電話番号":"025-222-5335",
    "テイクアウト":"有り",
    "デリバリー":"無し"
    }
  },
  {
    "type": "Feature",
    "geometry": {
       "type": "Point",
       "coordinates":  [ 139.070328,37.919849 ]
    },
    "properties": {
    "店名":"発酵の町沼垂ビール／沼垂ビア パブ",
    "ジャンル":"居酒屋",
    "区域":"中央区",
    "住所":"新潟市中央区沼垂東 2-9-5",
    "店コード":381,
    "電話番号":"025-383-8720",
    "テイクアウト":"有り",
    "デリバリー":"無し"
    }
  },
  {
    "type": "Feature",
    "geometry": {
       "type": "Point",
       "coordinates":  [ 139.051514,37.914326 ]
    },
    "properties": {
    "店名":"パンとカフェシエール NST 店",
    "ジャンル":"洋食",
    "区域":"中央区",
    "住所":"新潟市中央区八千代 2-3-1 NST2 階",
    "店コード":395,
    "電話番号":"025-246-6558",
    "テイクアウト":"有り",
    "デリバリー":"無し"
    }
  },
  {
    "type": "Feature",
    "geometry": {
       "type": "Point",
       "coordinates":  [ 139.037735,37.915577 ]
    },
    "properties": {
    "店名":"ぽんしゅ館魚沼釜蔵",
    "ジャンル":"和食",
    "区域":"中央区",
    "住所":"新潟市中央区花園 1-96-47 ホテルメッ ツ新潟 1F",
    "店コード":397,
    "電話番号":"025-240-7092",
    "テイクアウト":"有り",
    "デリバリー":"無し"
    }
  },
  {
    "type": "Feature",
    "geometry": {
       "type": "Point",
       "coordinates":  [ 139.038315,37.929607 ]
    },
    "properties": {
    "店名":"しゃぶ禅新潟店",
    "ジャンル":"和食",
    "区域":"中央区",
    "住所":"新潟市中央区弁天 1-2-4 ホテルグロー バルビュー新潟 2F",
    "店コード":398,
    "電話番号":"025-247-2500",
    "テイクアウト":"有り",
    "デリバリー":"無し"
    }
  },
  {
    "type": "Feature",
    "geometry": {
       "type": "Point",
       "coordinates":  [ 139.04628,37.920357 ]
    },
    "properties": {
    "店名":"本町鈴木鮮魚",
    "ジャンル":"和食",
    "区域":"中央区",
    "住所":"新潟市中央区本町通 6-1114-1",
    "店コード":410,
    "電話番号":"025-228-9675",
    "テイクアウト":"有り",
    "デリバリー":"無し"
    }
  },
  {
    "type": "Feature",
    "geometry": {
       "type": "Point",
       "coordinates":  [ 139.046249,37.924114 ]
    },
    "properties": {
    "店名":"ソウズ古町店",
    "ジャンル":"居酒屋",
    "区域":"中央区",
    "住所":"新潟市中央区東堀通 8 番町 1426 喜久 春ビル 1 Ｆ",
    "店コード":418,
    "電話番号":"025-225-2280",
    "テイクアウト":"無し",
    "デリバリー":"無し"
    }
  },
  {
    "type": "Feature",
    "geometry": {
       "type": "Point",
       "coordinates":  [ 139.04599,37.921036 ]
    },
    "properties": {
    "店名":"ソウズ本町店",
    "ジャンル":"居酒屋",
    "区域":"中央区",
    "住所":"新潟市中央区東堀前通 6 番町 1060-2",
    "店コード":419,
    "電話番号":"025-374-7477",
    "テイクアウト":"無し",
    "デリバリー":"無し"
    }
  },
  {
    "type": "Feature",
    "geometry": {
       "type": "Point",
       "coordinates":  [ 139.045944,37.92527 ]
    },
    "properties": {
    "店名":"Jyozo",
    "ジャンル":"居酒屋",
    "区域":"中央区",
    "住所":"新潟市中央区古町通 9 番町 1458",
    "店コード":420,
    "電話番号":"025-201-8241",
    "テイクアウト":"無し",
    "デリバリー":"無し"
    }
  },
  {
    "type": "Feature",
    "geometry": {
       "type": "Point",
       "coordinates":  [ 139.058105,37.912704 ]
    },
    "properties": {
    "店名":"奥阿賀の隠れ座敷山姥",
    "ジャンル":"居酒屋",
    "区域":"中央区",
    "住所":"新潟市中央区弁天 1-3-24",
    "店コード":426,
    "電話番号":"025-241-6582",
    "テイクアウト":"有り",
    "デリバリー":"無し"
    }
  },
  {
    "type": "Feature",
    "geometry": {
       "type": "Point",
       "coordinates":  [ 139.063965,37.913517 ]
    },
    "properties": {
    "店名":"馬肉酒場馬喰ろう新潟店",
    "ジャンル":"居酒屋",
    "区域":"中央区",
    "住所":"新潟市中央区花園 1-5-6 京ビル 2F",
    "店コード":427,
    "電話番号":"025-278-8348",
    "テイクアウト":"有り",
    "デリバリー":"有り"
    }
  },
  {
    "type": "Feature",
    "geometry": {
       "type": "Point",
       "coordinates":  [ 139.061691,37.914658 ]
    },
    "properties": {
    "店名":"焼ジビエ罠シナトラ",
    "ジャンル":"居酒屋",
    "区域":"中央区",
    "住所":"新潟市中央区東大通 1-6-22 三友ビル 1F",
    "店コード":429,
    "電話番号":"025-250-6645",
    "テイクアウト":"無し",
    "デリバリー":"無し"
    }
  },
  {
    "type": "Feature",
    "geometry": {
       "type": "Point",
       "coordinates":  [ 139.054779,37.912064 ]
    },
    "properties": {
    "店名":"居酒屋蔵人",
    "ジャンル":"居酒屋",
    "区域":"中央区",
    "住所":"新潟市中央区春日町 4-1",
    "店コード":432,
    "電話番号":"025-278-8472",
    "テイクアウト":"有り",
    "デリバリー":"無し"
    }
  },
  {
    "type": "Feature",
    "geometry": {
       "type": "Point",
       "coordinates":  [ 139.036697,37.927288 ]
    },
    "properties": {
    "店名":"ちゅーりっぷと鯱",
    "ジャンル":"居酒屋",
    "区域":"中央区",
    "住所":"新潟市中央区東大通 2-7-28 スタック 新潟 1F",
    "店コード":439,
    "電話番号":"025-246-6536",
    "テイクアウト":"有り",
    "デリバリー":"有り"
    }
  },
  {
    "type": "Feature",
    "geometry": {
       "type": "Point",
       "coordinates":  [ 139.045547,37.92384 ]
    },
    "properties": {
    "店名":"貝楽酒場たらふくうなり",
    "ジャンル":"居酒屋",
    "区域":"中央区",
    "住所":"新潟市中央区古町通 8 番町 1437-6",
    "店コード":441,
    "電話番号":"025-201-8429",
    "テイクアウト":"無し",
    "デリバリー":"無し"
    }
  },
  {
    "type": "Feature",
    "geometry": {
       "type": "Point",
       "coordinates":  [ 139.05249,37.921795 ]
    },
    "properties": {
    "店名":"新潟グランドホテルフランス料 理レストランベルビュー",
    "ジャンル":"フレンチ",
    "区域":"中央区",
    "住所":"新潟市中央区下大川前通 3 ノ町 2230",
    "店コード":444,
    "電話番号":"025-228-6170",
    "テイクアウト":"有り",
    "デリバリー":"有り"
    }
  },
  {
    "type": "Feature",
    "geometry": {
       "type": "Point",
       "coordinates":  [ 139.05249,37.921795 ]
    },
    "properties": {
    "店名":"新潟グランドホテルティーラウ ンジスパークル",
    "ジャンル":"喫茶",
    "区域":"中央区",
    "住所":"新潟市中央区下大川前通 3 ノ町 2230",
    "店コード":445,
    "電話番号":"025-228-6114",
    "テイクアウト":"有り",
    "デリバリー":"有り"
    }
  },
  {
    "type": "Feature",
    "geometry": {
       "type": "Point",
       "coordinates":  [ 139.05249,37.921795 ]
    },
    "properties": {
    "店名":"新潟グランドホテル中国料理レ ストラン慶楽",
    "ジャンル":"中華",
    "区域":"中央区",
    "住所":"新潟市中央区下大川前通 3 ノ町 2230",
    "店コード":446,
    "電話番号":"025-228-6172",
    "テイクアウト":"有り",
    "デリバリー":"有り"
    }
  },
  {
    "type": "Feature",
    "geometry": {
       "type": "Point",
       "coordinates":  [ 139.05249,37.921795 ]
    },
    "properties": {
    "店名":"新潟グランドホテル日本料理レ ストラン静香庵",
    "ジャンル":"和食",
    "区域":"中央区",
    "住所":"新潟市中央区下大川前通 3 ノ町 2230",
    "店コード":447,
    "電話番号":"025-228-6171",
    "テイクアウト":"有り",
    "デリバリー":"有り"
    }
  },
  {
    "type": "Feature",
    "geometry": {
       "type": "Point",
       "coordinates":  [ 139.056168,37.918686 ]
    },
    "properties": {
    "店名":"FRENCH TEPPAN 静香庵",
    "ジャンル":"その他",
    "区域":"中央区",
    "住所":"新潟市中央区万代 3-1-1 メディアシッ プ 19 階",
    "店コード":448,
    "電話番号":"025-245-1129",
    "テイクアウト":"有り",
    "デリバリー":"無し"
    }
  },
  {
    "type": "Feature",
    "geometry": {
       "type": "Point",
       "coordinates":  [ 139.056168,37.918686 ]
    },
    "properties": {
    "店名":"中国料理柳江苑",
    "ジャンル":"中華",
    "区域":"中央区",
    "住所":"新潟市中央区万代 1-3-30 万代シルバー ホテル 3 Ｆ",
    "店コード":458,
    "電話番号":"025-240-3370",
    "テイクアウト":"有り",
    "デリバリー":"無し"
    }
  },
  {
    "type": "Feature",
    "geometry": {
       "type": "Point",
       "coordinates":  [ 139.069,37.920074 ]
    },
    "properties": {
    "店名":"Ruruck Kitchen",
    "ジャンル":"その他",
    "区域":"中央区",
    "住所":"新潟市中央区沼垂東 3-5-22",
    "店コード":467,
    "電話番号":"025-384-4010",
    "テイクアウト":"有り",
    "デリバリー":"無し"
    }
  },
  {
    "type": "Feature",
    "geometry": {
       "type": "Point",
       "coordinates":  [ 139.070023,37.920265 ]
    },
    "properties": {
    "店名":"大佐渡たむら",
    "ジャンル":"割烹",
    "区域":"中央区",
    "住所":"新潟市中央区沼垂東 2-10-7",
    "店コード":468,
    "電話番号":"025-245-6789",
    "テイクアウト":"有り",
    "デリバリー":"無し"
    }
  },
  {
    "type": "Feature",
    "geometry": {
       "type": "Point",
       "coordinates":  [ 139.046051,37.92123 ]
    },
    "properties": {
    "店名":"なな草",
    "ジャンル":"和食",
    "区域":"中央区",
    "住所":"新潟市中央区東堀前通 6-1063-1 紋勇 ビル 2 階",
    "店コード":469,
    "電話番号":"025-222-0793",
    "テイクアウト":"有り",
    "デリバリー":"無し"
    }
  },
  {
    "type": "Feature",
    "geometry": {
       "type": "Point",
       "coordinates":  [ 139.043228,37.922489 ]
    },
    "properties": {
    "店名":"五十嵐邸結",
    "ジャンル":"洋食",
    "区域":"中央区",
    "住所":"新潟市中央区西堀通 6-866 ＮＥＸＴ 21",
    "店コード":471,
    "電話番号":"025-201-6388",
    "テイクアウト":"無し",
    "デリバリー":"無し"
    }
  },
  {
    "type": "Feature",
    "geometry": {
       "type": "Point",
       "coordinates":  [ 139.037735,37.915577 ]
    },
    "properties": {
    "店名":"Days",
    "ジャンル":"居酒屋",
    "区域":"中央区",
    "住所":"新潟市中央区花園 1-6-29 ワタシンビ ル 1F",
    "店コード":476,
    "電話番号":"025-384-4565",
    "テイクアウト":"有り",
    "デリバリー":"無し"
    }
  },
  {
    "type": "Feature",
    "geometry": {
       "type": "Point",
       "coordinates":  [ 139.058914,37.917381 ]
    },
    "properties": {
    "店名":"ホテル日航新潟「セリーナ」",
    "ジャンル":"洋食",
    "区域":"中央区",
    "住所":"新潟市中央区万代島 5-1",
    "店コード":482,
    "電話番号":"025-241-1928",
    "テイクアウト":"無し",
    "デリバリー":"無し"
    }
  },
  {
    "type": "Feature",
    "geometry": {
       "type": "Point",
       "coordinates":  [ 139.058914,37.917381 ]
    },
    "properties": {
    "店名":"ホテル日航新潟「スカイラウン ジ PANORAMA」",
    "ジャンル":"軽食",
    "区域":"中央区",
    "住所":"新潟市中央区万代島 5-1",
    "店コード":483,
    "電話番号":"025-240-1511",
    "テイクアウト":"無し",
    "デリバリー":"無し"
    }
  },
  {
    "type": "Feature",
    "geometry": {
       "type": "Point",
       "coordinates":  [ 139.058914,37.917381 ]
    },
    "properties": {
    "店名":"ホテル日航新潟「中国料理桃李」",
    "ジャンル":"中華",
    "区域":"中央区",
    "住所":"新潟市中央区万代島 5-1",
    "店コード":484,
    "電話番号":"025-240-1941",
    "テイクアウト":"無し",
    "デリバリー":"無し"
    }
  },
  {
    "type": "Feature",
    "geometry": {
       "type": "Point",
       "coordinates":  [ 139.023987,37.897316 ]
    },
    "properties": {
    "店名":"こびきの里／チャンピオンカ レー出来島店",
    "ジャンル":"その他",
    "区域":"中央区",
    "住所":"新潟市中央区南出来島 2-8-18",
    "店コード":486,
    "電話番号":"025-281-0085",
    "テイクアウト":"有り",
    "デリバリー":"無し"
    }
  },
  {
    "type": "Feature",
    "geometry": {
       "type": "Point",
       "coordinates":  [ 139.065857,37.924763 ]
    },
    "properties": {
    "店名":"とんかつ政ちゃん沼垂本店",
    "ジャンル":"和食",
    "区域":"中央区",
    "住所":"新潟市中央区沼垂東 5-12-1",
    "店コード":493,
    "電話番号":"025-245-2994",
    "テイクアウト":"有り",
    "デリバリー":"無し"
    }
  },
  {
    "type": "Feature",
    "geometry": {
       "type": "Point",
       "coordinates":  [ 139.062866,37.913746 ]
    },
    "properties": {
    "店名":"とんかつ政ちゃん新潟駅前店",
    "ジャンル":"和食",
    "区域":"中央区",
    "住所":"新潟市中央区花園 1-3-2 IMA Ⅱビル 2 階",
    "店コード":494,
    "電話番号":"025-383-6721",
    "テイクアウト":"有り",
    "デリバリー":"無し"
    }
  },
  {
    "type": "Feature",
    "geometry": {
       "type": "Point",
       "coordinates":  [ 139.064346,37.908268 ]
    },
    "properties": {
    "店名":"新潟かつ丼政家新潟駅南店",
    "ジャンル":"和食",
    "区域":"中央区",
    "住所":"新潟市中央区南笹口 1-1-1 ひもろぎビ ル2階",
    "店コード":497,
    "電話番号":"025-243-6125",
    "テイクアウト":"有り",
    "デリバリー":"無し"
    }
  },
  {
    "type": "Feature",
    "geometry": {
       "type": "Point",
       "coordinates":  [ 139.030067,37.897979 ]
    },
    "properties": {
    "店名":"新潟かつ丼政家 DeKKY401 店",
    "ジャンル":"和食",
    "区域":"中央区",
    "住所":"新 潟 市 中 央 区 上 近 江 4-12-20  DeKKY401-1 階",
    "店コード":499,
    "電話番号":"025-281-6116",
    "テイクアウト":"有り",
    "デリバリー":"無し"
    }
  },
  {
    "type": "Feature",
    "geometry": {
       "type": "Point",
       "coordinates":  [ 139.059967,37.914242 ]
    },
    "properties": {
    "店名":"安兵衛本店",
    "ジャンル":"居酒屋",
    "区域":"中央区",
    "住所":"新潟市中央区東大通 1-2-5 クオリスビ ル地階",
    "店コード":512,
    "電話番号":"025-243-3533",
    "テイクアウト":"有り",
    "デリバリー":"無し"
    }
  },
  {
    "type": "Feature",
    "geometry": {
       "type": "Point",
       "coordinates":  [ 139.045135,37.922382 ]
    },
    "properties": {
    "店名":"安兵衛古町店",
    "ジャンル":"居酒屋",
    "区域":"中央区",
    "住所":"新潟市中央区古町通 7-995-4",
    "店コード":513,
    "電話番号":"025-222-6245",
    "テイクアウト":"有り",
    "デリバリー":"無し"
    }
  },
  {
    "type": "Feature",
    "geometry": {
       "type": "Point",
       "coordinates":  [ 139.060883,37.914577 ]
    },
    "properties": {
    "店名":"安兵衛帝石裏店",
    "ジャンル":"居酒屋",
    "区域":"中央区",
    "住所":"新潟市中央区東大通 1-3-1 帝石ビル別 館 1F",
    "店コード":514,
    "電話番号":"025-250-0702",
    "テイクアウト":"有り",
    "デリバリー":"無し"
    }
  },
  {
    "type": "Feature",
    "geometry": {
       "type": "Point",
       "coordinates":  [ 139.062347,37.914169 ]
    },
    "properties": {
    "店名":"大衆割烹河童",
    "ジャンル":"割烹",
    "区域":"中央区",
    "住所":"新潟市中央区東大通 1-5-28",
    "店コード":515,
    "電話番号":"025-247-4425",
    "テイクアウト":"有り",
    "デリバリー":"無し"
    }
  },
  {
    "type": "Feature",
    "geometry": {
       "type": "Point",
       "coordinates":  [ 139.035461,37.913635 ]
    },
    "properties": {
    "店名":"越後まる松",
    "ジャンル":"和食",
    "区域":"中央区",
    "住所":"新潟市中央区東大通 1-2-5 クオリスビ ル 3F ～ 5F",
    "店コード":516,
    "電話番号":"025-243-3532",
    "テイクアウト":"無し",
    "デリバリー":"有り"
    }
  },
  {
    "type": "Feature",
    "geometry": {
       "type": "Point",
       "coordinates":  [ 139.043213,37.9198 ]
    },
    "properties": {
    "店名":"シェモア",
    "ジャンル":"フレンチ",
    "区域":"中央区",
    "住所":"新潟市中央区西堀前通五番町 761",
    "店コード":518,
    "電話番号":"025-225-0543",
    "テイクアウト":"無し",
    "デリバリー":"無し"
    }
  },
  {
    "type": "Feature",
    "geometry": {
       "type": "Point",
       "coordinates":  [ 139.064346,37.908268 ]
    },
    "properties": {
    "店名":"焼肉食べ放題ＺＡＯ駅南店",
    "ジャンル":"その他",
    "区域":"中央区",
    "住所":"新潟市中央区南笹口 1-1-1 ひもろぎビ ル2Ｆ",
    "店コード":535,
    "電話番号":"025-240-6933",
    "テイクアウト":"有り",
    "デリバリー":"無し"
    }
  },
  {
    "type": "Feature",
    "geometry": {
       "type": "Point",
       "coordinates":  [ 139.038101,37.901451 ]
    },
    "properties": {
    "店名":"焼肉にくみわび",
    "ジャンル":"その他",
    "区域":"中央区",
    "住所":"新潟市中央区新和 1-7-9",
    "店コード":544,
    "電話番号":"025-250-7778",
    "テイクアウト":"有り",
    "デリバリー":"無し"
    }
  },
  {
    "type": "Feature",
    "geometry": {
       "type": "Point",
       "coordinates":  [ 139.019104,37.914078 ]
    },
    "properties": {
    "店名":"BEANS CAFE",
    "ジャンル":"喫茶",
    "区域":"中央区",
    "住所":"新潟市中央区関屋松波町 3-343 フロー リアン松波・1",
    "店コード":552,
    "電話番号":"080-9361-6792",
    "テイクアウト":"有り",
    "デリバリー":"無し"
    }
  },
  {
    "type": "Feature",
    "geometry": {
       "type": "Point",
       "coordinates":  [ 139.045547,37.92384 ]
    },
    "properties": {
    "店名":"越後茶屋古町酒房",
    "ジャンル":"和食",
    "区域":"中央区",
    "住所":"新潟市中央区古町通 8 番町 1434",
    "店コード":559,
    "電話番号":"025-224-7584",
    "テイクアウト":"有り",
    "デリバリー":"無し"
    }
  },
  {
    "type": "Feature",
    "geometry": {
       "type": "Point",
       "coordinates":  [ 139.035751,37.885513 ]
    },
    "properties": {
    "店名":"五頭の山茂登新潟店",
    "ジャンル":"和食",
    "区域":"中央区",
    "住所":"新潟市中央区鳥屋野 447-1",
    "店コード":561,
    "電話番号":"025-280-1600",
    "テイクアウト":"有り",
    "デリバリー":"無し"
    }
  },
  {
    "type": "Feature",
    "geometry": {
       "type": "Point",
       "coordinates":  [ 139.027145,37.900864 ]
    },
    "properties": {
    "店名":"地鳥庵県庁前店",
    "ジャンル":"居酒屋",
    "区域":"中央区",
    "住所":"新潟市中央区出来島 2-1-10",
    "店コード":563,
    "電話番号":"025-283-6066",
    "テイクアウト":"有り",
    "デリバリー":"無し"
    }
  },
  {
    "type": "Feature",
    "geometry": {
       "type": "Point",
       "coordinates":  [ 139.028488,37.894161 ]
    },
    "properties": {
    "店名":"ブーランジェリーリリッカ",
    "ジャンル":"軽食",
    "区域":"中央区",
    "住所":"新潟市中央区女池上山 1-5-16",
    "店コード":565,
    "電話番号":"025-285-8691",
    "テイクアウト":"有り",
    "デリバリー":"無し"
    }
  },
  {
    "type": "Feature",
    "geometry": {
       "type": "Point",
       "coordinates":  [ 139.037735,37.915577 ]
    },
    "properties": {
    "店名":"喜多方ラーメン蔵けやき通り店",
    "ジャンル":"ラーメン",
    "区域":"中央区",
    "住所":"新潟市中央区米山 1-6-9 IB ビル 1F",
    "店コード":566,
    "電話番号":"025-248-1235",
    "テイクアウト":"無し",
    "デリバリー":"無し"
    }
  },
  {
    "type": "Feature",
    "geometry": {
       "type": "Point",
       "coordinates":  [ 139.057831,37.916584 ]
    },
    "properties": {
    "店名":"らーめん風伯万代店",
    "ジャンル":"ラーメン",
    "区域":"中央区",
    "住所":"新潟市中央区万代 1-1-32 プリオール 万代 101 号",
    "店コード":567,
    "電話番号":"025-248-2089",
    "テイクアウト":"無し",
    "デリバリー":"無し"
    }
  },
  {
    "type": "Feature",
    "geometry": {
       "type": "Point",
       "coordinates":  [ 139.028488,37.894161 ]
    },
    "properties": {
    "店名":"らーめん風伯女池店",
    "ジャンル":"ラーメン",
    "区域":"中央区",
    "住所":"新潟市中央区女池上山 1-5-15",
    "店コード":568,
    "電話番号":"025-284-2020",
    "テイクアウト":"無し",
    "デリバリー":"無し"
    }
  },
  {
    "type": "Feature",
    "geometry": {
       "type": "Point",
       "coordinates":  [ 139.062195,37.912472 ]
    },
    "properties": {
    "店名":"無尽蔵花園家",
    "ジャンル":"ラーメン",
    "区域":"中央区",
    "住所":"新潟市中央区花園 1-2-2 コープシティ 花園（ガレッソ）1 階",
    "店コード":569,
    "電話番号":"025-290-6366",
    "テイクアウト":"無し",
    "デリバリー":"無し"
    }
  },
  {
    "type": "Feature",
    "geometry": {
       "type": "Point",
       "coordinates":  [ 139.044617,37.924252 ]
    },
    "properties": {
    "店名":"天婦羅田さき",
    "ジャンル":"和食",
    "区域":"中央区",
    "住所":"新潟市中央区西堀前通 8 番町 1518 カ シマヤビル 1F",
    "店コード":583,
    "電話番号":"025-224-9233",
    "テイクアウト":"無し",
    "デリバリー":"無し"
    }
  },
  {
    "type": "Feature",
    "geometry": {
       "type": "Point",
       "coordinates":  [ 139.061704,37.914984 ]
    },
    "properties": {
    "店名":"寿司ダイニングやまざき",
    "ジャンル":"居酒屋",
    "区域":"中央区",
    "住所":"新潟市中央区東大通 1-7-30 ホワイト ビル 2F",
    "店コード":592,
    "電話番号":"025-384-8803",
    "テイクアウト":"有り",
    "デリバリー":"無し"
    }
  },
  {
    "type": "Feature",
    "geometry": {
       "type": "Point",
       "coordinates":  [ 139.059525,37.912689 ]
    },
    "properties": {
    "店名":"弁慶の泣き処",
    "ジャンル":"居酒屋",
    "区域":"中央区",
    "住所":"新潟市中央区弁天 1-13-1 COMO ビル",
    "店コード":593,
    "電話番号":"025-250-6894",
    "テイクアウト":"有り",
    "デリバリー":"無し"
    }
  },
  {
    "type": "Feature",
    "geometry": {
       "type": "Point",
       "coordinates":  [ 139.034363,37.900417 ]
    },
    "properties": {
    "店名":"焼肉ざおう近江店",
    "ジャンル":"その他",
    "区域":"中央区",
    "住所":"新潟市中央区上近江 3-1-32",
    "店コード":597,
    "電話番号":"025-285-1218",
    "テイクアウト":"有り",
    "デリバリー":"無し"
    }
  },
  {
    "type": "Feature",
    "geometry": {
       "type": "Point",
       "coordinates":  [ 139.046249,37.924114 ]
    },
    "properties": {
    "店名":"鮨割烹丸伊",
    "ジャンル":"寿司",
    "区域":"中央区",
    "住所":"新潟市中央区東堀通 8 番町 1411",
    "店コード":598,
    "電話番号":"025-228-0101",
    "テイクアウト":"有り",
    "デリバリー":"有り"
    }
  },
  {
    "type": "Feature",
    "geometry": {
       "type": "Point",
       "coordinates":  [ 139.056747,37.916508 ]
    },
    "properties": {
    "店名":"たこ焼き極",
    "ジャンル":"軽食",
    "区域":"中央区",
    "住所":"新潟市中央区万代 1-6-1 万代シテイバ スセンタービル 1F",
    "店コード":604,
    "電話番号":"070-4539-8800",
    "テイクアウト":"有り",
    "デリバリー":"無し"
    }
  },
  {
    "type": "Feature",
    "geometry": {
       "type": "Point",
       "coordinates":  [ 139.056747,37.916508 ]
    },
    "properties": {
    "店名":"チキンダック",
    "ジャンル":"軽食",
    "区域":"中央区",
    "住所":"新潟市中央区万代 1-6-1 万代シテイバ スセンタービル 1F",
    "店コード":605,
    "電話番号":"070-4539-8800",
    "テイクアウト":"有り",
    "デリバリー":"無し"
    }
  },
  {
    "type": "Feature",
    "geometry": {
       "type": "Point",
       "coordinates":  [ 139.074646,37.887981 ]
    },
    "properties": {
    "店名":"張園南店",
    "ジャンル":"中華",
    "区域":"中央区",
    "住所":"新潟市中央区姥ケ山 65-1",
    "店コード":612,
    "電話番号":"025-288-6490",
    "テイクアウト":"有り",
    "デリバリー":"無し"
    }
  },
  {
    "type": "Feature",
    "geometry": {
       "type": "Point",
       "coordinates":  [ 139.070618,37.909168 ]
    },
    "properties": {
    "店名":"トラットリアノラ・クチーナ新 潟鐙店",
    "ジャンル":"イタリアン",
    "区域":"中央区",
    "住所":"新潟市中央区南笹口 1-2-19",
    "店コード":617,
    "電話番号":"025-282-5122",
    "テイクアウト":"有り",
    "デリバリー":"有り"
    }
  },
  {
    "type": "Feature",
    "geometry": {
       "type": "Point",
       "coordinates":  [ 139.067444,37.900631 ]
    },
    "properties": {
    "店名":"新潟牛華堂",
    "ジャンル":"和食",
    "区域":"中央区",
    "住所":"新潟市中央区紫竹山 2-5-8",
    "店コード":626,
    "電話番号":"025-384-4634",
    "テイクアウト":"有り",
    "デリバリー":"無し"
    }
  },
  {
    "type": "Feature",
    "geometry": {
       "type": "Point",
       "coordinates":  [ 139.025146,37.892128 ]
    },
    "properties": {
    "店名":"台湾茶房茶趣茶樂",
    "ジャンル":"喫茶",
    "区域":"中央区",
    "住所":"新潟市中央区女池上山 4-22-11",
    "店コード":634,
    "電話番号":"025-211-2229",
    "テイクアウト":"有り",
    "デリバリー":"無し"
    }
  },
  {
    "type": "Feature",
    "geometry": {
       "type": "Point",
       "coordinates":  [ 139.038315,37.929607 ]
    },
    "properties": {
    "店名":"フレッシュネスバーガービル ボードプレイス店",
    "ジャンル":"ファストフード",
    "区域":"中央区",
    "住所":"新潟市中央区八千代 2-5-7- BP2-1F",
    "店コード":635,
    "電話番号":"025-290-4981",
    "テイクアウト":"有り",
    "デリバリー":"有り"
    }
  },
  {
    "type": "Feature",
    "geometry": {
       "type": "Point",
       "coordinates":  [ 139.056168,37.918686 ]
    },
    "properties": {
    "店名":"フレッシュネスバーガーメディ アシップ店",
    "ジャンル":"ファストフード",
    "区域":"中央区",
    "住所":"新潟市中央区万代 3-1-1 メディアシッ プ 1F",
    "店コード":636,
    "電話番号":"025-282-5365",
    "テイクアウト":"有り",
    "デリバリー":"有り"
    }
  },
  {
    "type": "Feature",
    "geometry": {
       "type": "Point",
       "coordinates":  [ 139.05275,37.905293 ]
    },
    "properties": {
    "店名":"Shanghai Fun Dining 楼蘭",
    "ジャンル":"中華",
    "区域":"中央区",
    "住所":"新潟市中央区堀之内南 1-15-15 とやの ショッピングセンター内",
    "店コード":645,
    "電話番号":"025-246-3366",
    "テイクアウト":"有り",
    "デリバリー":"有り"
    }
  },
  {
    "type": "Feature",
    "geometry": {
       "type": "Point",
       "coordinates":  [ 139.041336,37.90234 ]
    },
    "properties": {
    "店名":"味の店ちづる",
    "ジャンル":"ラーメン",
    "区域":"中央区",
    "住所":"新潟市中央区新和 1-3-24",
    "店コード":665,
    "電話番号":"025-282-3036",
    "テイクアウト":"有り",
    "デリバリー":"有り"
    }
  },
  {
    "type": "Feature",
    "geometry": {
       "type": "Point",
       "coordinates":  [ 139.059662,37.909424 ]
    },
    "properties": {
    "店名":"けやきジンギスしちりん亭",
    "ジャンル":"その他",
    "区域":"中央区",
    "住所":"新潟市中央区天神 1-18-10",
    "店コード":679,
    "電話番号":"025-243-4489",
    "テイクアウト":"無し",
    "デリバリー":"無し"
    }
  },
  {
    "type": "Feature",
    "geometry": {
       "type": "Point",
       "coordinates":  [ 139.041245,37.918983 ]
    },
    "properties": {
    "店名":"日本料理和幸",
    "ジャンル":"和食",
    "区域":"中央区",
    "住所":"新潟市中央区西堀通 3 番町 799 マン ション西堀カメリア 1 Ｆ",
    "店コード":681,
    "電話番号":"025-228-0825",
    "テイクアウト":"有り",
    "デリバリー":"有り"
    }
  },
  {
    "type": "Feature",
    "geometry": {
       "type": "Point",
       "coordinates":  [ 139.058105,37.912704 ]
    },
    "properties": {
    "店名":"天晴れ",
    "ジャンル":"居酒屋",
    "区域":"中央区",
    "住所":"新潟市中央区弁天 1-3-5",
    "店コード":688,
    "電話番号":"025-241-8088",
    "テイクアウト":"有り",
    "デリバリー":"無し"
    }
  },
  {
    "type": "Feature",
    "geometry": {
       "type": "Point",
       "coordinates":  [ 139.063965,37.913517 ]
    },
    "properties": {
    "店名":"ヤサイ串巻マグロしゃぶしゃぶ アッパレ",
    "ジャンル":"居酒屋",
    "区域":"中央区",
    "住所":"新潟市中央区花園 1-5-4",
    "店コード":689,
    "電話番号":"025-383-6646",
    "テイクアウト":"有り",
    "デリバリー":"無し"
    }
  },
  {
    "type": "Feature",
    "geometry": {
       "type": "Point",
       "coordinates":  [ 139.058289,37.913033 ]
    },
    "properties": {
    "店名":"デンジャラスチキン",
    "ジャンル":"居酒屋",
    "区域":"中央区",
    "住所":"新潟市中央区弁天 3-2-24",
    "店コード":690,
    "電話番号":"025-245-3533",
    "テイクアウト":"有り",
    "デリバリー":"無し"
    }
  },
  {
    "type": "Feature",
    "geometry": {
       "type": "Point",
       "coordinates":  [ 139.060562,37.921368 ]
    },
    "properties": {
    "店名":"鯛家新潟店",
    "ジャンル":"和食",
    "区域":"中央区",
    "住所":"新潟市中央区東大通 1-3-20 木村ビル 1F",
    "店コード":697,
    "電話番号":"025-247-6633",
    "テイクアウト":"有り",
    "デリバリー":"有り"
    }
  },
  {
    "type": "Feature",
    "geometry": {
       "type": "Point",
       "coordinates":  [ 139.037735,37.915577 ]
    },
    "properties": {
    "店名":"壱勢新潟店",
    "ジャンル":"居酒屋",
    "区域":"中央区",
    "住所":"新潟市中央区東大通 1-5-30 HOKUYU BUIL2 1F",
    "店コード":701,
    "電話番号":"025-242-1200",
    "テイクアウト":"有り",
    "デリバリー":"有り"
    }
  },
  {
    "type": "Feature",
    "geometry": {
       "type": "Point",
       "coordinates":  [ 139.024445,37.709023 ]
    },
    "properties": {
    "店名":"サーティワンアイスクリーム亀 田アピタ店",
    "ジャンル":"ファストフード",
    "区域":"江南区",
    "住所":"新潟市江南区鵜ノ子 4-466 アピタ新潟 亀田店",
    "店コード":35,
    "電話番号":"025-382-1531",
    "テイクアウト":"有り",
    "デリバリー":"無し"
    }
  },
  {
    "type": "Feature",
    "geometry": {
       "type": "Point",
       "coordinates":  [ 139.081406,37.875832 ]
    },
    "properties": {
    "店名":"サーティワンアイスクリームイ オンモール新潟南店",
    "ジャンル":"ファストフード",
    "区域":"江南区",
    "住所":"新潟市江南区下早通柳田 1-1-1 イオン モール新潟南",
    "店コード":36,
    "電話番号":"025-211-3731",
    "テイクアウト":"有り",
    "デリバリー":"無し"
    }
  },
  {
    "type": "Feature",
    "geometry": {
       "type": "Point",
       "coordinates":  [ 139.14267,37.851299 ]
    },
    "properties": {
    "店名":"天心坊横越店",
    "ジャンル":"ラーメン",
    "区域":"江南区",
    "住所":"新潟市江南区横越中央 8-2-2 スーパー センタープラント 5 横越店内",
    "店コード":96,
    "電話番号":"025-385-1050",
    "テイクアウト":"無し",
    "デリバリー":"無し"
    }
  },
  {
    "type": "Feature",
    "geometry": {
       "type": "Point",
       "coordinates":  [ 139.081406,37.875832 ]
    },
    "properties": {
    "店名":"富寿し新潟南店",
    "ジャンル":"寿司",
    "区域":"江南区",
    "住所":"新潟市江南区下早通柳田 1-1-1 イオン 新潟南店 1F",
    "店コード":111,
    "電話番号":"025-383-5650",
    "テイクアウト":"有り",
    "デリバリー":"無し"
    }
  },
  {
    "type": "Feature",
    "geometry": {
       "type": "Point",
       "coordinates":  [ 139.081406,37.875832 ]
    },
    "properties": {
    "店名":"海鮮丼富寿し新潟南店",
    "ジャンル":"寿司",
    "区域":"江南区",
    "住所":"新潟市江南区下早通柳田 1-1-1 イオン 新潟南店 3F",
    "店コード":112,
    "電話番号":"025-256-8570",
    "テイクアウト":"有り",
    "デリバリー":"無し"
    }
  },
  {
    "type": "Feature",
    "geometry": {
       "type": "Point",
       "coordinates":  [ 139.096893,37.872391 ]
    },
    "properties": {
    "店名":"石焼ステーキ贅亀田店",
    "ジャンル":"洋食",
    "区域":"江南区",
    "住所":"新潟市江南区亀田四ツ興野 1-568-2",
    "店コード":233,
    "電話番号":"025-383-5855",
    "テイクアウト":"有り",
    "デリバリー":"無し"
    }
  },
  {
    "type": "Feature",
    "geometry": {
       "type": "Point",
       "coordinates":  [ 139.154175,37.852493 ]
    },
    "properties": {
    "店名":"日本料理本徳",
    "ジャンル":"和食",
    "区域":"江南区",
    "住所":"新潟市江南区横越中央 4-7-10",
    "店コード":254,
    "電話番号":"025-385-2019",
    "テイクアウト":"有り",
    "デリバリー":"有り"
    }
  },
  {
    "type": "Feature",
    "geometry": {
       "type": "Point",
       "coordinates":  [ 139.154251,37.824833 ]
    },
    "properties": {
    "店名":"( 有 ) 割烹ふじ田",
    "ジャンル":"割烹",
    "区域":"江南区",
    "住所":"新潟市江南区沢海 3-13-11",
    "店コード":370,
    "電話番号":"025-385-3733",
    "テイクアウト":"有り",
    "デリバリー":"有り"
    }
  },
  {
    "type": "Feature",
    "geometry": {
       "type": "Point",
       "coordinates":  [ 139.102844,37.875416 ]
    },
    "properties": {
    "店名":"ことぶき寿司亀田店",
    "ジャンル":"寿司",
    "区域":"江南区",
    "住所":"新潟市江南区旭 3-1156-1",
    "店コード":459,
    "電話番号":"025-382-8993",
    "テイクアウト":"有り",
    "デリバリー":"無し"
    }
  },
  {
    "type": "Feature",
    "geometry": {
       "type": "Point",
       "coordinates":  [ 139.150314,37.854076 ]
    },
    "properties": {
    "店名":"ことぶき寿司 PLANT5 横越店",
    "ジャンル":"寿司",
    "区域":"江南区",
    "住所":"新潟市江南区横越中央 8-3-1013",
    "店コード":460,
    "電話番号":"025-383-2228",
    "テイクアウト":"有り",
    "デリバリー":"無し"
    }
  },
  {
    "type": "Feature",
    "geometry": {
       "type": "Point",
       "coordinates":  [ 139.129623,37.88472 ]
    },
    "properties": {
    "店名":"鮨寿",
    "ジャンル":"寿司",
    "区域":"江南区",
    "住所":"新潟市江南区茗荷谷 711 新潟市中央卸 売市場内",
    "店コード":461,
    "電話番号":"025-257-2308",
    "テイクアウト":"有り",
    "デリバリー":"無し"
    }
  },
  {
    "type": "Feature",
    "geometry": {
       "type": "Point",
       "coordinates":  [ 139.081406,37.875832 ]
    },
    "properties": {
    "店名":"新潟かつ丼政家イオン新潟南店",
    "ジャンル":"和食",
    "区域":"江南区",
    "住所":"新潟市江南区下早通柳田 1-1-1 イオン モール新潟南 3 階フードコート",
    "店コード":501,
    "電話番号":"025-383-5619",
    "テイクアウト":"有り",
    "デリバリー":"無し"
    }
  },
  {
    "type": "Feature",
    "geometry": {
       "type": "Point",
       "coordinates":  [ 139.024445,37.709023 ]
    },
    "properties": {
    "店名":"ピーコック亀田店",
    "ジャンル":"ファストフード",
    "区域":"江南区",
    "住所":"新潟市江南区鵜ノ子 4-466 アピタ新潟 亀田店 2 階",
    "店コード":541,
    "電話番号":"025-383-3339",
    "テイクアウト":"有り",
    "デリバリー":"無し"
    }
  },
  {
    "type": "Feature",
    "geometry": {
       "type": "Point",
       "coordinates":  [ 139.093185,37.872196 ]
    },
    "properties": {
    "店名":"赤から亀田店",
    "ジャンル":"居酒屋",
    "区域":"江南区",
    "住所":"新潟市江南区鵜ノ子 2-1-9",
    "店コード":543,
    "電話番号":"025-383-1555",
    "テイクアウト":"無し",
    "デリバリー":"無し"
    }
  },
  {
    "type": "Feature",
    "geometry": {
       "type": "Point",
       "coordinates":  [ 139.092194,37.870678 ]
    },
    "properties": {
    "店名":"三宝亭亀田店",
    "ジャンル":"ラーメン",
    "区域":"江南区",
    "住所":"新潟市江南区早苗 2-2-38",
    "店コード":654,
    "電話番号":"025-383-3319",
    "テイクアウト":"有り",
    "デリバリー":"無し"
    }
  },
  {
    "type": "Feature",
    "geometry": {
       "type": "Point",
       "coordinates":  [ 139.129623,37.88472 ]
    },
    "properties": {
    "店名":"市玄",
    "ジャンル":"寿司",
    "区域":"江南区",
    "住所":"新潟市江南区茗荷谷 711 新潟市中央卸 売市場",
    "店コード":684,
    "電話番号":"025-257-6919",
    "テイクアウト":"有り",
    "デリバリー":"無し"
    }
  },
  {
    "type": "Feature",
    "geometry": {
       "type": "Point",
       "coordinates":  [ 139.129623,37.88472 ]
    },
    "properties": {
    "店名":"誠食堂",
    "ジャンル":"寿司",
    "区域":"江南区",
    "住所":"新潟市江南区茗荷谷 711 新潟市中央卸 売市場",
    "店コード":685,
    "電話番号":"025-257-6937",
    "テイクアウト":"有り",
    "デリバリー":"無し"
    }
  },
  {
    "type": "Feature",
    "geometry": {
       "type": "Point",
       "coordinates":  [ 139.129623,37.88472 ]
    },
    "properties": {
    "店名":"にぎり米新潟駅前店",
    "ジャンル":"寿司",
    "区域":"江南区",
    "住所":"新潟市江南区茗荷谷 711 新潟市中央卸 売市場",
    "店コード":686,
    "電話番号":"025-282-5010",
    "テイクアウト":"有り",
    "デリバリー":"無し"
    }
  },
  {
    "type": "Feature",
    "geometry": {
       "type": "Point",
       "coordinates":  [ 139.112869,37.805195 ]
    },
    "properties": {
    "店名":"サーティワンアイスクリームコ モタウン新津店",
    "ジャンル":"ファストフード",
    "区域":"秋葉区",
    "住所":"新潟市秋葉区新津 5163-3 コモタウン 新津",
    "店コード":37,
    "電話番号":"0250-47-8431",
    "テイクアウト":"有り",
    "デリバリー":"無し"
    }
  },
  {
    "type": "Feature",
    "geometry": {
       "type": "Point",
       "coordinates":  [ 139.1008,37.815948 ]
    },
    "properties": {
    "店名":"ステーキのさるーん新津店",
    "ジャンル":"洋食",
    "区域":"秋葉区",
    "住所":"新潟市秋葉区北上 2040",
    "店コード":231,
    "電話番号":"0250-24-7575",
    "テイクアウト":"有り",
    "デリバリー":"無し"
    }
  },
  {
    "type": "Feature",
    "geometry": {
       "type": "Point",
       "coordinates":  [ 139.123169,37.797981 ]
    },
    "properties": {
    "店名":"株式会社昭和基地一丁目駄菓子 やＣ５７",
    "ジャンル":"軽食",
    "区域":"秋葉区",
    "住所":"新潟市秋葉区新津本町 1-5-8",
    "店コード":379,
    "電話番号":"0250-25-3457",
    "テイクアウト":"有り",
    "デリバリー":"無し"
    }
  },
  {
    "type": "Feature",
    "geometry": {
       "type": "Point",
       "coordinates":  [ 139.124069,37.798279 ]
    },
    "properties": {
    "店名":"割烹桝形屋",
    "ジャンル":"割烹",
    "区域":"秋葉区",
    "住所":"新潟市秋葉区新津本町 2-2-16",
    "店コード":391,
    "電話番号":"0250-22-0284",
    "テイクアウト":"有り",
    "デリバリー":"有り"
    }
  },
  {
    "type": "Feature",
    "geometry": {
       "type": "Point",
       "coordinates":  [ 139.124069,37.798279 ]
    },
    "properties": {
    "店名":"喜よ桝",
    "ジャンル":"和食",
    "区域":"秋葉区",
    "住所":"新潟市秋葉区新津本町 2-2-16",
    "店コード":392,
    "電話番号":"0250-24-5218",
    "テイクアウト":"有り",
    "デリバリー":"有り"
    }
  },
  {
    "type": "Feature",
    "geometry": {
       "type": "Point",
       "coordinates":  [ 139.127289,37.793537 ]
    },
    "properties": {
    "店名":"割烹おぐま",
    "ジャンル":"割烹",
    "区域":"秋葉区",
    "住所":"新潟市秋葉区新津本町 4-14-5",
    "店コード":417,
    "電話番号":"0250-22-3004",
    "テイクアウト":"有り",
    "デリバリー":"有り"
    }
  },
  {
    "type": "Feature",
    "geometry": {
       "type": "Point",
       "coordinates":  [ 139.115631,37.834759 ]
    },
    "properties": {
    "店名":"夫婦寿司",
    "ジャンル":"寿司",
    "区域":"秋葉区",
    "住所":"新潟市秋葉区中野 1-13-15",
    "店コード":521,
    "電話番号":"0250-24-6830",
    "テイクアウト":"有り",
    "デリバリー":"有り"
    }
  },
  {
    "type": "Feature",
    "geometry": {
       "type": "Point",
       "coordinates":  [ 139.115326,37.805889 ]
    },
    "properties": {
    "店名":"無尽蔵にいつ家",
    "ジャンル":"ラーメン",
    "区域":"秋葉区",
    "住所":"新潟市秋葉区善道町 555",
    "店コード":572,
    "電話番号":"0250-24-1501",
    "テイクアウト":"無し",
    "デリバリー":"無し"
    }
  },
  {
    "type": "Feature",
    "geometry": {
       "type": "Point",
       "coordinates":  [ 139.1138,37.806293 ]
    },
    "properties": {
    "店名":"レストラン三宝新津店",
    "ジャンル":"中華",
    "区域":"秋葉区",
    "住所":"新潟市秋葉区善道字潟端 576-1",
    "店コード":639,
    "電話番号":"0250-21-3030",
    "テイクアウト":"有り",
    "デリバリー":"無し"
    }
  },
  {
    "type": "Feature",
    "geometry": {
       "type": "Point",
       "coordinates":  [ 139.115875,37.784821 ]
    },
    "properties": {
    "店名":"さんぽう亭新津店",
    "ジャンル":"ラーメン",
    "区域":"秋葉区",
    "住所":"新潟市秋葉区程島 1865-1",
    "店コード":648,
    "電話番号":"0250-21-1330",
    "テイクアウト":"有り",
    "デリバリー":"無し"
    }
  },
  {
    "type": "Feature",
    "geometry": {
       "type": "Point",
       "coordinates":  [ 139.019745,37.78793 ]
    },
    "properties": {
    "店名":"瑞雪楼",
    "ジャンル":"和食",
    "区域":"南区",
    "住所":"新潟市南区保坂 293-1",
    "店コード":251,
    "電話番号":"025-372-0800",
    "テイクアウト":"有り",
    "デリバリー":"有り"
    }
  },
  {
    "type": "Feature",
    "geometry": {
       "type": "Point",
       "coordinates":  [ 139.014725,37.75758 ]
    },
    "properties": {
    "店名":"炭火舎 佐助",
    "ジャンル":"居酒屋",
    "区域":"南区",
    "住所":"新潟市南区白根日の出町 575-4",
    "店コード":403,
    "電話番号":"025-372-6811",
    "テイクアウト":"有り",
    "デリバリー":"有り"
    }
  },
  {
    "type": "Feature",
    "geometry": {
       "type": "Point",
       "coordinates":  [ 139.014084,37.76123 ]
    },
    "properties": {
    "店名":"いたりあん酒場 googoo",
    "ジャンル":"居酒屋",
    "区域":"南区",
    "住所":"新潟市南区白根 2837-3",
    "店コード":532,
    "電話番号":"025-373-5504",
    "テイクアウト":"無し",
    "デリバリー":"無し"
    }
  },
  {
    "type": "Feature",
    "geometry": {
       "type": "Point",
       "coordinates":  [ 139.012161,37.729359 ]
    },
    "properties": {
    "店名":"くるまやラーメン東萱場店",
    "ジャンル":"ラーメン",
    "区域":"南区",
    "住所":"新潟市南区東萱場 2016-1",
    "店コード":539,
    "電話番号":"025-211-8815",
    "テイクアウト":"有り",
    "デリバリー":"無し"
    }
  },
  {
    "type": "Feature",
    "geometry": {
       "type": "Point",
       "coordinates":  [ 139.016632,37.775276 ]
    },
    "properties": {
    "店名":"レストラン三宝白根店",
    "ジャンル":"中華",
    "区域":"南区",
    "住所":"新潟市南区鰺潟 512",
    "店コード":638,
    "電話番号":"025-373-3010",
    "テイクアウト":"有り",
    "デリバリー":"無し"
    }
  },
  {
    "type": "Feature",
    "geometry": {
       "type": "Point",
       "coordinates":  [ 139.01535,37.768272 ]
    },
    "properties": {
    "店名":"さんぽう亭白根店",
    "ジャンル":"ラーメン",
    "区域":"南区",
    "住所":"新潟市南区能登 2-386-13",
    "店コード":649,
    "電話番号":"025-373-3644",
    "テイクアウト":"有り",
    "デリバリー":"無し"
    }
  },
  {
    "type": "Feature",
    "geometry": {
       "type": "Point",
       "coordinates":  [ 138.937363,37.858036 ]
    },
    "properties": {
    "店名":"寿司割烹瀧ずし",
    "ジャンル":"寿司",
    "区域":"西区",
    "住所":"新潟市西区内野町 426-2",
    "店コード":3,
    "電話番号":"025-262-1331",
    "テイクアウト":"有り",
    "デリバリー":"有り"
    }
  },
  {
    "type": "Feature",
    "geometry": {
       "type": "Point",
       "coordinates":  [ 139.00473,37.89642 ]
    },
    "properties": {
    "店名":"バターフィールドイオン新潟青 山店",
    "ジャンル":"イタリアン",
    "区域":"西区",
    "住所":"新潟市西区青山 2-5-1 イオン新潟青山 店 1F",
    "店コード":14,
    "電話番号":"025-231-8150",
    "テイクアウト":"有り",
    "デリバリー":"無し"
    }
  },
  {
    "type": "Feature",
    "geometry": {
       "type": "Point",
       "coordinates":  [ 139.00354,37.88055 ]
    },
    "properties": {
    "店名":"サーティワンアイスクリーム新 潟西アピタ店",
    "ジャンル":"ファストフード",
    "区域":"西区",
    "住所":"新潟市西区小新 5-7-21 アピタ新潟西 店",
    "店コード":33,
    "電話番号":"025-232-3531",
    "テイクアウト":"有り",
    "デリバリー":"無し"
    }
  },
  {
    "type": "Feature",
    "geometry": {
       "type": "Point",
       "coordinates":  [ 139.00473,37.89642 ]
    },
    "properties": {
    "店名":"サーティワンアイスクリームイオン 新潟青山ショッピングセンター店",
    "ジャンル":"ファストフード",
    "区域":"西区",
    "住所":"新潟市西区青山 2-5-1 イオン新潟青山 店",
    "店コード":34,
    "電話番号":"025-378-1131",
    "テイクアウト":"有り",
    "デリバリー":"無し"
    }
  },
  {
    "type": "Feature",
    "geometry": {
       "type": "Point",
       "coordinates":  [ 139.004227,37.891888 ]
    },
    "properties": {
    "店名":"元町珈琲新潟青山の離れ",
    "ジャンル":"喫茶",
    "区域":"西区",
    "住所":"新潟市西区平島 1-3-4",
    "店コード":58,
    "電話番号":"025-201-6170",
    "テイクアウト":"有り",
    "デリバリー":"無し"
    }
  },
  {
    "type": "Feature",
    "geometry": {
       "type": "Point",
       "coordinates":  [ 139.019531,37.872704 ]
    },
    "properties": {
    "店名":"新潟 B 級グルメ横町",
    "ジャンル":"その他",
    "区域":"西区",
    "住所":"新潟市西区山田 2307 新潟ふるさと村 内",
    "店コード":89,
    "電話番号":"025-230-3000",
    "テイクアウト":"有り",
    "デリバリー":"無し"
    }
  },
  {
    "type": "Feature",
    "geometry": {
       "type": "Point",
       "coordinates":  [ 139.019531,37.872704 ]
    },
    "properties": {
    "店名":"団体レストラン番屋亭",
    "ジャンル":"和食",
    "区域":"西区",
    "住所":"新潟市西区山田 2307 新潟ふるさと村 内",
    "店コード":90,
    "電話番号":"025-230-3000",
    "テイクアウト":"無し",
    "デリバリー":"無し"
    }
  },
  {
    "type": "Feature",
    "geometry": {
       "type": "Point",
       "coordinates":  [ 139.019531,37.872704 ]
    },
    "properties": {
    "店名":"郷土料理赤とんぼ・ふるさと寿 司",
    "ジャンル":"和食",
    "区域":"西区",
    "住所":"新潟市西区山田 2307 新潟ふるさと村 内",
    "店コード":91,
    "電話番号":"025-230-3000",
    "テイクアウト":"無し",
    "デリバリー":"無し"
    }
  },
  {
    "type": "Feature",
    "geometry": {
       "type": "Point",
       "coordinates":  [ 138.984421,37.87962 ]
    },
    "properties": {
    "店名":"天心坊大堀店",
    "ジャンル":"ラーメン",
    "区域":"西区",
    "住所":"新潟市西区坂井東 1-6-15",
    "店コード":94,
    "電話番号":"025-231-0007",
    "テイクアウト":"有り",
    "デリバリー":"有り"
    }
  },
  {
    "type": "Feature",
    "geometry": {
       "type": "Point",
       "coordinates":  [ 138.998856,37.892033 ]
    },
    "properties": {
    "店名":"廻鮮丸寿司小針店",
    "ジャンル":"寿司",
    "区域":"西区",
    "住所":"新潟市西区小針南 62-1",
    "店コード":185,
    "電話番号":"025-232-7495",
    "テイクアウト":"有り",
    "デリバリー":"無し"
    }
  },
  {
    "type": "Feature",
    "geometry": {
       "type": "Point",
       "coordinates":  [ 138.993134,37.873569 ]
    },
    "properties": {
    "店名":"ら～めん処がんこ屋",
    "ジャンル":"ラーメン",
    "区域":"西区",
    "住所":"新潟市西区小新西 3-15-1",
    "店コード":189,
    "電話番号":"025-233-8888",
    "テイクアウト":"有り",
    "デリバリー":"無し"
    }
  },
  {
    "type": "Feature",
    "geometry": {
       "type": "Point",
       "coordinates":  [ 139.008423,37.887344 ]
    },
    "properties": {
    "店名":"餃子日和わらん新潟西店",
    "ジャンル":"居酒屋",
    "区域":"西区",
    "住所":"新潟市西区小新南 2-2-43",
    "店コード":197,
    "電話番号":"025-201-6857",
    "テイクアウト":"有り",
    "デリバリー":"無し"
    }
  },
  {
    "type": "Feature",
    "geometry": {
       "type": "Point",
       "coordinates":  [ 138.996124,37.870148 ]
    },
    "properties": {
    "店名":"石焼ステーキ贅小新店",
    "ジャンル":"洋食",
    "区域":"西区",
    "住所":"新潟市西区小新大通り 2-2-5",
    "店コード":235,
    "電話番号":"025-201-1070",
    "テイクアウト":"有り",
    "デリバリー":"無し"
    }
  },
  {
    "type": "Feature",
    "geometry": {
       "type": "Point",
       "coordinates":  [ 138.94342,37.865368 ]
    },
    "properties": {
    "店名":"権倉",
    "ジャンル":"居酒屋",
    "区域":"西区",
    "住所":"新潟市西区大学南 2-7-47",
    "店コード":257,
    "電話番号":"025-239-5005",
    "テイクアウト":"有り",
    "デリバリー":"無し"
    }
  },
  {
    "type": "Feature",
    "geometry": {
       "type": "Point",
       "coordinates":  [ 139.003571,37.894318 ]
    },
    "properties": {
    "店名":"ラグナグ青山店",
    "ジャンル":"イタリアン",
    "区域":"西区",
    "住所":"新潟市西区東青山 1-6-3",
    "店コード":260,
    "電話番号":"025-265-7777",
    "テイクアウト":"有り",
    "デリバリー":"無し"
    }
  },
  {
    "type": "Feature",
    "geometry": {
       "type": "Point",
       "coordinates":  [ 138.94194,37.853603 ]
    },
    "properties": {
    "店名":"ことぶき寿司内野店",
    "ジャンル":"寿司",
    "区域":"西区",
    "住所":"新潟市西区槇尾 22-1",
    "店コード":338,
    "電話番号":"025-263-1231",
    "テイクアウト":"有り",
    "デリバリー":"無し"
    }
  },
  {
    "type": "Feature",
    "geometry": {
       "type": "Point",
       "coordinates":  [ 139.005646,37.895432 ]
    },
    "properties": {
    "店名":"とんかつ政ちゃん青山店",
    "ジャンル":"和食",
    "区域":"西区",
    "住所":"新潟市西区青山 170-4",
    "店コード":495,
    "電話番号":"025-267-3400",
    "テイクアウト":"有り",
    "デリバリー":"無し"
    }
  },
  {
    "type": "Feature",
    "geometry": {
       "type": "Point",
       "coordinates":  [ 138.987686,37.885124 ]
    },
    "properties": {
    "店名":"新潟かつ丼政家新潟寺尾店",
    "ジャンル":"和食",
    "区域":"西区",
    "住所":"新潟市西区寺尾朝日通 11-9",
    "店コード":498,
    "電話番号":"025-265-6639",
    "テイクアウト":"有り",
    "デリバリー":"無し"
    }
  },
  {
    "type": "Feature",
    "geometry": {
       "type": "Point",
       "coordinates":  [ 139.003321,37.880577 ]
    },
    "properties": {
    "店名":"ピーコック新潟西店",
    "ジャンル":"ファストフード",
    "区域":"西区",
    "住所":"新潟市西区小新 5-7-21 アピタ新潟西 店2階",
    "店コード":542,
    "電話番号":"025-378-1100",
    "テイクアウト":"有り",
    "デリバリー":"無し"
    }
  },
  {
    "type": "Feature",
    "geometry": {
       "type": "Point",
       "coordinates":  [ 138.976913,37.884052 ]
    },
    "properties": {
    "店名":"和味屋喜笑",
    "ジャンル":"居酒屋",
    "区域":"西区",
    "住所":"新潟市西区寺尾台 2-4-46",
    "店コード":551,
    "電話番号":"025-201-6887",
    "テイクアウト":"有り",
    "デリバリー":"無し"
    }
  },
  {
    "type": "Feature",
    "geometry": {
       "type": "Point",
       "coordinates":  [ 139.018005,37.875507 ]
    },
    "properties": {
    "店名":"レストラン三宝新潟黒埼本店",
    "ジャンル":"中華",
    "区域":"西区",
    "住所":"新潟市西区山田 48",
    "店コード":637,
    "電話番号":"025-377-3258",
    "テイクアウト":"有り",
    "デリバリー":"無し"
    }
  },
  {
    "type": "Feature",
    "geometry": {
       "type": "Point",
       "coordinates":  [ 138.948502,37.860123 ]
    },
    "properties": {
    "店名":"三宝亭新通店",
    "ジャンル":"ラーメン",
    "区域":"西区",
    "住所":"新潟市西区新通 1071-1",
    "店コード":655,
    "電話番号":"025-260-3315",
    "テイクアウト":"有り",
    "デリバリー":"無し"
    }
  },
  {
    "type": "Feature",
    "geometry": {
       "type": "Point",
       "coordinates":  [ 139.019531,37.872704 ]
    },
    "properties": {
    "店名":"三宝亭山田店",
    "ジャンル":"ラーメン",
    "区域":"西区",
    "住所":"新潟市西区山田 2307-364",
    "店コード":656,
    "電話番号":"025-231-3336",
    "テイクアウト":"有り",
    "デリバリー":"無し"
    }
  },
  {
    "type": "Feature",
    "geometry": {
       "type": "Point",
       "coordinates":  [ 138.980301,37.865116 ]
    },
    "properties": {
    "店名":"三宝亭亀貝店",
    "ジャンル":"ラーメン",
    "区域":"西区",
    "住所":"新潟市西区亀貝 1401 原信亀貝 SC 内",
    "店コード":663,
    "電話番号":"025-211-0363",
    "テイクアウト":"有り",
    "デリバリー":"無し"
    }
  },
  {
    "type": "Feature",
    "geometry": {
       "type": "Point",
       "coordinates":  [ 139.000031,37.900204 ]
    },
    "properties": {
    "店名":"鮨季節の料理青山",
    "ジャンル":"寿司",
    "区域":"西区",
    "住所":"新潟市西区東青山 1-5-19 青山ビル 1 階",
    "店コード":694,
    "電話番号":"025-233-6606",
    "テイクアウト":"有り",
    "デリバリー":"有り"
    }
  },
  {
    "type": "Feature",
    "geometry": {
       "type": "Point",
       "coordinates":  [ 138.837891,37.741043 ]
    },
    "properties": {
    "店名":"ダイニング花なり亭（ゆもとや）",
    "ジャンル":"和食",
    "区域":"西蒲区",
    "住所":"新潟市西蒲区岩室温泉 91-1",
    "店コード":6,
    "電話番号":"0256-82-2015",
    "テイクアウト":"無し",
    "デリバリー":"無し"
    }
  },
  {
    "type": "Feature",
    "geometry": {
       "type": "Point",
       "coordinates":  [ 138.894165,37.746666 ]
    },
    "properties": {
    "店名":"ごん蔵巻店",
    "ジャンル":"居酒屋",
    "区域":"西蒲区",
    "住所":"新潟市西蒲区赤鏥 1007-1",
    "店コード":78,
    "電話番号":"0256-73-4711",
    "テイクアウト":"有り",
    "デリバリー":"有り"
    }
  },
  {
    "type": "Feature",
    "geometry": {
       "type": "Point",
       "coordinates":  [ 139.120193,37.944237 ]
    },
    "properties": {
    "店名":"農園のカフェ厨房 TONERIKO",
    "ジャンル":"和食",
    "区域":"西蒲区",
    "住所":"新潟市西蒲区下山 1320-1",
    "店コード":128,
    "電話番号":"0256-78-7515",
    "テイクアウト":"有り",
    "デリバリー":"無し"
    }
  },
  {
    "type": "Feature",
    "geometry": {
       "type": "Point",
       "coordinates":  [ 138.887558,37.757423 ]
    },
    "properties": {
    "店名":"CAFE BAR 風待",
    "ジャンル":"居酒屋",
    "区域":"西蒲区",
    "住所":"新潟市西蒲区巻甲 2530-21",
    "店コード":145,
    "電話番号":"0256-73-3995",
    "テイクアウト":"有り",
    "デリバリー":"無し"
    }
  },
  {
    "type": "Feature",
    "geometry": {
       "type": "Point",
       "coordinates":  [ 138.84581,37.803284 ]
    },
    "properties": {
    "店名":"コテアコテカフェ",
    "ジャンル":"軽食",
    "区域":"西蒲区",
    "住所":"新潟市西蒲区角田浜 1661",
    "店コード":267,
    "電話番号":"0256-77-8637",
    "テイクアウト":"無し",
    "デリバリー":"無し"
    }
  },
  {
    "type": "Feature",
    "geometry": {
       "type": "Point",
       "coordinates":  [ 138.84581,37.803284 ]
    },
    "properties": {
    "店名":"カーブドッチヴィネスパ",
    "ジャンル":"和食",
    "区域":"西蒲区",
    "住所":"新潟市西蒲区角田浜 1661",
    "店コード":268,
    "電話番号":"0256-77-2226",
    "テイクアウト":"無し",
    "デリバリー":"無し"
    }
  },
  {
    "type": "Feature",
    "geometry": {
       "type": "Point",
       "coordinates":  [ 138.945724,37.752708 ]
    },
    "properties": {
    "店名":"サンセリテ川多津",
    "ジャンル":"割烹",
    "区域":"西蒲区",
    "住所":"新潟市西蒲区今井 7-3",
    "店コード":279,
    "電話番号":"0256-86-2207",
    "テイクアウト":"有り",
    "デリバリー":"有り"
    }
  },
  {
    "type": "Feature",
    "geometry": {
       "type": "Point",
       "coordinates":  [ 138.966171,37.765278 ]
    },
    "properties": {
    "店名":"大衆割烹妙",
    "ジャンル":"割烹",
    "区域":"西蒲区",
    "住所":"新潟市西蒲区番屋 578-1",
    "店コード":330,
    "電話番号":"0256-86-2846",
    "テイクアウト":"有り",
    "デリバリー":"有り"
    }
  },
  {
    "type": "Feature",
    "geometry": {
       "type": "Point",
       "coordinates":  [ 138.842422,37.734936 ]
    },
    "properties": {
    "店名":"ラ・ビステッカ",
    "ジャンル":"その他",
    "区域":"西蒲区",
    "住所":"新潟市西蒲区橋本 259",
    "店コード":342,
    "電話番号":"0256-77-8677",
    "テイクアウト":"有り",
    "デリバリー":"無し"
    }
  },
  {
    "type": "Feature",
    "geometry": {
       "type": "Point",
       "coordinates":  [ 138.887558,37.757423 ]
    },
    "properties": {
    "店名":"料亭三笠屋",
    "ジャンル":"和食",
    "区域":"西蒲区",
    "住所":"新潟市西蒲区巻甲 2533",
    "店コード":346,
    "電話番号":"0256-72-2323",
    "テイクアウト":"有り",
    "デリバリー":"無し"
    }
  },
  {
    "type": "Feature",
    "geometry": {
       "type": "Point",
       "coordinates":  [ 138.825684,37.794285 ]
    },
    "properties": {
    "店名":"KAIHOLO",
    "ジャンル":"喫茶",
    "区域":"西蒲区",
    "住所":"新潟市西蒲区角田浜 1657",
    "店コード":385,
    "電話番号":"0256-75-9058",
    "テイクアウト":"有り",
    "デリバリー":"無し"
    }
  },
  {
    "type": "Feature",
    "geometry": {
       "type": "Point",
       "coordinates":  [ 138.943222,37.747089 ]
    },
    "properties": {
    "店名":"KenKen 餃子",
    "ジャンル":"ラーメン",
    "区域":"西蒲区",
    "住所":"新潟市西蒲区国見 2718-1",
    "店コード":386,
    "電話番号":"0256-78-7474",
    "テイクアウト":"有り",
    "デリバリー":"無し"
    }
  },
  {
    "type": "Feature",
    "geometry": {
       "type": "Point",
       "coordinates":  [ 138.933533,37.746487 ]
    },
    "properties": {
    "店名":"魚寅",
    "ジャンル":"割烹",
    "区域":"西蒲区",
    "住所":"新潟市西蒲区漆山 2887-1",
    "店コード":478,
    "電話番号":"0256-76-2211",
    "テイクアウト":"有り",
    "デリバリー":"有り"
    }
  },
  {
    "type": "Feature",
    "geometry": {
       "type": "Point",
       "coordinates":  [ 138.853516,37.44659 ]
    },
    "properties": {
    "店名":"バターフィールド CoCoLo 長岡 店",
    "ジャンル":"イタリアン",
    "区域":"長岡市",
    "住所":"長岡市城内町 1-611-1",
    "店コード":15,
    "電話番号":"0258-39-5155",
    "テイクアウト":"有り",
    "デリバリー":"無し"
    }
  },
  {
    "type": "Feature",
    "geometry": {
       "type": "Point",
       "coordinates":  [ 138.882782,37.324604 ]
    },
    "properties": {
    "店名":"Cabane de Luxe レストラン古 志高原",
    "ジャンル":"フレンチ",
    "区域":"長岡市",
    "住所":"長岡市山古志竹沢甲 910",
    "店コード":62,
    "電話番号":"0258-86-5112",
    "テイクアウト":"有り",
    "デリバリー":"有り"
    }
  },
  {
    "type": "Feature",
    "geometry": {
       "type": "Point",
       "coordinates":  [ 138.806824,37.451694 ]
    },
    "properties": {
    "店名":"越後十日町小嶋屋長岡店",
    "ジャンル":"和食",
    "区域":"長岡市",
    "住所":"長岡市喜多町 975-1",
    "店コード":68,
    "電話番号":"0258-89-7411",
    "テイクアウト":"有り",
    "デリバリー":"無し"
    }
  },
  {
    "type": "Feature",
    "geometry": {
       "type": "Point",
       "coordinates":  [ 138.854736,37.447247 ]
    },
    "properties": {
    "店名":"ドトールコーヒーショップ長岡 東口店",
    "ジャンル":"喫茶",
    "区域":"長岡市",
    "住所":"長岡市台町 2-4-56 EPLAZA1F",
    "店コード":72,
    "電話番号":"0258-34-5500",
    "テイクアウト":"有り",
    "デリバリー":"無し"
    }
  },
  {
    "type": "Feature",
    "geometry": {
       "type": "Point",
       "coordinates":  [ 138.85257,37.448154 ]
    },
    "properties": {
    "店名":"キンキラハイボール酒場",
    "ジャンル":"居酒屋",
    "区域":"長岡市",
    "住所":"長岡市城内町 2-3-6",
    "店コード":82,
    "電話番号":"0258-89-6161",
    "テイクアウト":"有り",
    "デリバリー":"有り"
    }
  },
  {
    "type": "Feature",
    "geometry": {
       "type": "Point",
       "coordinates":  [ 138.852417,37.447742 ]
    },
    "properties": {
    "店名":"たこの壺",
    "ジャンル":"居酒屋",
    "区域":"長岡市",
    "住所":"長岡市城内町 2-2-2",
    "店コード":83,
    "電話番号":"0258-36-0311",
    "テイクアウト":"有り",
    "デリバリー":"有り"
    }
  },
  {
    "type": "Feature",
    "geometry": {
       "type": "Point",
       "coordinates":  [ 138.852448,37.449982 ]
    },
    "properties": {
    "店名":"和 MAK ダイニング月乃兎",
    "ジャンル":"居酒屋",
    "区域":"長岡市",
    "住所":"長岡市城内町 3-3-2 城内通販ビル 1-A",
    "店コード":87,
    "電話番号":"0258-94-5636",
    "テイクアウト":"無し",
    "デリバリー":"無し"
    }
  },
  {
    "type": "Feature",
    "geometry": {
       "type": "Point",
       "coordinates":  [ 138.854538,37.450012 ]
    },
    "properties": {
    "店名":"和 MAK ダイニング月乃兎～結 ～",
    "ジャンル":"居酒屋",
    "区域":"長岡市",
    "住所":"長岡市城内町 3-8-2 城内ドルミービル 2F",
    "店コード":88,
    "電話番号":"0258-94-5636",
    "テイクアウト":"無し",
    "デリバリー":"無し"
    }
  },
  {
    "type": "Feature",
    "geometry": {
       "type": "Point",
       "coordinates":  [ 138.93428,37.355751 ]
    },
    "properties": {
    "店名":"食堂やまびこ",
    "ジャンル":"和食",
    "区域":"長岡市",
    "住所":"長岡市山古志種苧原 3244-3",
    "店コード":92,
    "電話番号":"0258-59-2980",
    "テイクアウト":"無し",
    "デリバリー":"無し"
    }
  },
  {
    "type": "Feature",
    "geometry": {
       "type": "Point",
       "coordinates":  [ 138.891754,37.342411 ]
    },
    "properties": {
    "店名":"にこにこひろば",
    "ジャンル":"軽食",
    "区域":"長岡市",
    "住所":"長岡市山古志虫亀 759",
    "店コード":102,
    "電話番号":"080-1335-2386",
    "テイクアウト":"有り",
    "デリバリー":"無し"
    }
  },
  {
    "type": "Feature",
    "geometry": {
       "type": "Point",
       "coordinates":  [ 138.819595,37.454716 ]
    },
    "properties": {
    "店名":"廻鮮富寿し長岡古正寺店",
    "ジャンル":"寿司",
    "区域":"長岡市",
    "住所":"長岡市古正寺 1-231-5",
    "店コード":113,
    "電話番号":"0258-86-8160",
    "テイクアウト":"有り",
    "デリバリー":"無し"
    }
  },
  {
    "type": "Feature",
    "geometry": {
       "type": "Point",
       "coordinates":  [ 138.851379,37.446819 ]
    },
    "properties": {
    "店名":"富寿し長岡駅前店",
    "ジャンル":"寿司",
    "区域":"長岡市",
    "住所":"長岡市大手通 1-4-3",
    "店コード":116,
    "電話番号":"0258-30-0888",
    "テイクアウト":"有り",
    "デリバリー":"無し"
    }
  },
  {
    "type": "Feature",
    "geometry": {
       "type": "Point",
       "coordinates":  [ 138.852249,37.447361 ]
    },
    "properties": {
    "店名":"極 DINING 若旦那長岡駅前店",
    "ジャンル":"居酒屋",
    "区域":"長岡市",
    "住所":"長岡市大手通 1-3-2",
    "店コード":121,
    "電話番号":"0258-86-7886",
    "テイクアウト":"有り",
    "デリバリー":"有り"
    }
  },
  {
    "type": "Feature",
    "geometry": {
       "type": "Point",
       "coordinates":  [ 138.850449,37.448189 ]
    },
    "properties": {
    "店名":"あおぎり",
    "ジャンル":"居酒屋",
    "区域":"長岡市",
    "住所":"長岡市東坂之上町 2-2-9 東坂之上ビル 地下 1 階",
    "店コード":129,
    "電話番号":"0258-89-6674",
    "テイクアウト":"有り",
    "デリバリー":"無し"
    }
  },
  {
    "type": "Feature",
    "geometry": {
       "type": "Point",
       "coordinates":  [ 138.862106,37.450817 ]
    },
    "properties": {
    "店名":"レストランムービー",
    "ジャンル":"洋食",
    "区域":"長岡市",
    "住所":"長岡市今朝白 3-17-15",
    "店コード":140,
    "電話番号":"0258-35-5913",
    "テイクアウト":"有り",
    "デリバリー":"無し"
    }
  },
  {
    "type": "Feature",
    "geometry": {
       "type": "Point",
       "coordinates":  [ 138.849808,37.447975 ]
    },