var pointdata = {
   "type": "FeatureCollection",
   "features": [
  {
    "type": "Feature",
    "geometry": {
       "type": "Point",
       "coordinates":  [ 139.044699,37.924906 ]
    },
    "properties": {
    "店名":"鳥梅西堀店",
    "ジャンル":"居酒屋",
    "区域":"中央区",
    "住所":"新潟市中央区西堀前通8-1525",
    "店コード":1,
    "電話番号":"025-229-0186",
    "テイクアウト":"有り",
    "デリバリー":"無し"
    }
  },
  {
    "type": "Feature",
    "geometry": {
       "type": "Point",
       "coordinates":  [ 139.075333,37.904194 ]
    },
    "properties": {
    "店名":"こがね鮨",
    "ジャンル":"寿司",
    "区域":"東区",
    "住所":"新潟市東区紫竹5-1-1",
    "店コード":2,
    "電話番号":"025-246-0032",
    "テイクアウト":"有り",
    "デリバリー":"有り"
    }
  },
  {
    "type": "Feature",
    "geometry": {
       "type": "Point",
       "coordinates":  [ 138.937363,37.858036 ]
    },
    "properties": {
    "店名":"寿司割烹瀧ずし",
    "ジャンル":"寿司",
    "区域":"西区",
    "住所":"新潟市西区内野町426-2",
    "店コード":3,
    "電話番号":"025-262-1331",
    "テイクアウト":"有り",
    "デリバリー":"有り"
    }
  },
  {
    "type": "Feature",
    "geometry": {
       "type": "Point",
       "coordinates":  [ 139.062347,37.914169 ]
    },
    "properties": {
    "店名":"和が家",
    "ジャンル":"居酒屋",
    "区域":"中央区",
    "住所":"新潟市中央区東大通1-5-7",
    "店コード":4,
    "電話番号":"025-247-1085",
    "テイクアウト":"有り",
    "デリバリー":"無し"
    }
  },
  {
    "type": "Feature",
    "geometry": {
       "type": "Point",
       "coordinates":  [ 139.377289,38.012032 ]
    },
    "properties": {
    "店名":"91R-DOGPARKCAFE-",
    "ジャンル":"喫茶",
    "区域":"新発田市",
    "住所":"新発田市貝塚40-46",
    "店コード":5,
    "電話番号":"0254-28-8769",
    "テイクアウト":"有り",
    "デリバリー":"無し"
    }
  },
  {
    "type": "Feature",
    "geometry": {
       "type": "Point",
       "coordinates":  [ 138.837891,37.741043 ]
    },
    "properties": {
    "店名":"ダイニング花なり亭（ゆもとや）",
    "ジャンル":"和食",
    "区域":"西蒲区",
    "住所":"新潟市西蒲区岩室温泉91-1",
    "店コード":6,
    "電話番号":"0256-82-2015",
    "テイクアウト":"無し",
    "デリバリー":"無し"
    }
  },
  {
    "type": "Feature",
    "geometry": {
       "type": "Point",
       "coordinates":  [ 139.045944,37.92527 ]
    },
    "properties": {
    "店名":"港すし",
    "ジャンル":"寿司",
    "区域":"中央区",
    "住所":"新潟市中央区古町通9-1454",
    "店コード":7,
    "電話番号":"025-222-3710",
    "テイクアウト":"有り",
    "デリバリー":"有り"
    }
  },
  {
    "type": "Feature",
    "geometry": {
       "type": "Point",
       "coordinates":  [ 139.086807,37.894234 ]
    },
    "properties": {
    "店名":"和の心菓匠庵",
    "ジャンル":"和食",
    "区域":"中央区",
    "住所":"新潟市中央区姥ケ山2-27-23",
    "店コード":8,
    "電話番号":"025-286-3413",
    "テイクアウト":"有り",
    "デリバリー":"無し"
    }
  },
  {
    "type": "Feature",
    "geometry": {
       "type": "Point",
       "coordinates":  [ 139.478882,38.223843 ]
    },
    "properties": {
    "店名":"海鮮一鰭",
    "ジャンル":"和食",
    "区域":"村上市",
    "住所":"村上市大町4-5大町文庫1階",
    "店コード":9,
    "電話番号":"0254-75-5610",
    "テイクアウト":"有り",
    "デリバリー":"有り"
    }
  },
  {
    "type": "Feature",
    "geometry": {
       "type": "Point",
       "coordinates":  [ 139.093414,37.905701 ]
    },
    "properties": {
    "店名":"ナチュラルレストランかたやま",
    "ジャンル":"和食",
    "区域":"東区",
    "住所":"新潟市東区卸新町3-16-31ナチュレ片山2F",
    "店コード":10,
    "電話番号":"025-270-2088",
    "テイクアウト":"無し",
    "デリバリー":"無し"
    }
  },
  {
    "type": "Feature",
    "geometry": {
       "type": "Point",
       "coordinates":  [ 138.759995,36.804073 ]
    },
    "properties": {
    "店名":"蔵（御宿本陣）",
    "ジャンル":"和食",
    "区域":"湯沢町",
    "住所":"南魚沼郡湯沢町三国378",
    "店コード":11,
    "電話番号":"025-789-2012",
    "テイクアウト":"無し",
    "デリバリー":"無し"
    }
  },
  {
    "type": "Feature",
    "geometry": {
       "type": "Point",
       "coordinates":  [ 138.795273,36.944065 ]
    },
    "properties": {
    "店名":"寿司本陣ダイニング",
    "ジャンル":"寿司",
    "区域":"湯沢町",
    "住所":"南魚沼郡湯沢町湯沢2427-1JR越後湯沢駅CoCoLoがんぎどおり",
    "店コード":12,
    "電話番号":"025-785-2082",
    "テイクアウト":"有り",
    "デリバリー":"有り"
    }
  },
  {
    "type": "Feature",
    "geometry": {
       "type": "Point",
       "coordinates":  [ 139.053085,37.881832 ]
    },
    "properties": {
    "店名":"やさい茶屋",
    "ジャンル":"和食",
    "区域":"中央区",
    "住所":"新潟市中央区清五郎123",
    "店コード":13,
    "電話番号":"025-287-3150",
    "テイクアウト":"有り",
    "デリバリー":"有り"
    }
  },
  {
    "type": "Feature",
    "geometry": {
       "type": "Point",
       "coordinates":  [ 139.00473,37.89642 ]
    },
    "properties": {
    "店名":"バターフィールドイオン新潟青山店",
    "ジャンル":"イタリアン",
    "区域":"西区",
    "住所":"新潟市西区青山2-5-1イオン新潟青山店1F",
    "店コード":14,
    "電話番号":"025-231-8150",
    "テイクアウト":"有り",
    "デリバリー":"無し"
    }
  },
  {
    "type": "Feature",
    "geometry": {
       "type": "Point",
       "coordinates":  [ 138.853516,37.44659 ]
    },
    "properties": {
    "店名":"バターフィールドCoCoLo長岡店",
    "ジャンル":"イタリアン",
    "区域":"長岡市",
    "住所":"長岡市城内町1-611-1",
    "店コード":15,
    "電話番号":"0258-39-5155",
    "テイクアウト":"有り",
    "デリバリー":"無し"
    }
  },
  {
    "type": "Feature",
    "geometry": {
       "type": "Point",
       "coordinates":  [ 138.24176,38.031796 ]
    },
    "properties": {
    "店名":"古民家食堂持田家",
    "ジャンル":"和食",
    "区域":"佐渡市",
    "住所":"佐渡市相川一町目7",
    "店コード":16,
    "電話番号":"0259-67-7268",
    "テイクアウト":"有り",
    "デリバリー":"有り"
    }
  },
  {
    "type": "Feature",
    "geometry": {
       "type": "Point",
       "coordinates":  [ 139.037735,37.915577 ]
    },
    "properties": {
    "店名":"グリル有壬",
    "ジャンル":"洋食",
    "区域":"中央区",
    "住所":"新潟市中央区旭町通1-757有壬記念館1F",
    "店コード":17,
    "電話番号":"025-222-8885",
    "テイクアウト":"無し",
    "デリバリー":"無し"
    }
  },
  {
    "type": "Feature",
    "geometry": {
       "type": "Point",
       "coordinates":  [ 139.051117,37.920017 ]
    },
    "properties": {
    "店名":"和食や彦",
    "ジャンル":"和食",
    "区域":"中央区",
    "住所":"新潟市中央区川端町6-53ホテルオークラ新潟",
    "店コード":18,
    "電話番号":"025-224-6130",
    "テイクアウト":"有り",
    "デリバリー":"無し"
    }
  },
  {
    "type": "Feature",
    "geometry": {
       "type": "Point",
       "coordinates":  [ 139.051117,37.920017 ]
    },
    "properties": {
    "店名":"中国料理桃花林",
    "ジャンル":"中華",
    "区域":"中央区",
    "住所":"新潟市中央区川端町6-53ホテルオークラ新潟",
    "店コード":19,
    "電話番号":"025-224-6150",
    "テイクアウト":"有り",
    "デリバリー":"無し"
    }
  },
  {
    "type": "Feature",
    "geometry": {
       "type": "Point",
       "coordinates":  [ 139.051117,37.920017 ]
    },
    "properties": {
    "店名":"バーエジンバラ",
    "ジャンル":"その他",
    "区域":"中央区",
    "住所":"新潟市中央区川端町6-53ホテルオークラ新潟",
    "店コード":20,
    "電話番号":"025-224-6168",
    "テイクアウト":"無し",
    "デリバリー":"無し"
    }
  },
  {
    "type": "Feature",
    "geometry": {
       "type": "Point",
       "coordinates":  [ 139.051117,37.920017 ]
    },
    "properties": {
    "店名":"レストランスターライト",
    "ジャンル":"フレンチ",
    "区域":"中央区",
    "住所":"新潟市中央区川端町6-53ホテルオークラ新潟",
    "店コード":21,
    "電話番号":"025-224-6160",
    "テイクアウト":"無し",
    "デリバリー":"無し"
    }
  },
  {
    "type": "Feature",
    "geometry": {
       "type": "Point",
       "coordinates":  [ 139.051117,37.920017 ]
    },
    "properties": {
    "店名":"ティーラウンジラ・しなの",
    "ジャンル":"喫茶",
    "区域":"中央区",
    "住所":"新潟市中央区川端町6-53ホテルオークラ新潟",
    "店コード":22,
    "電話番号":"025-224-6111",
    "テイクアウト":"無し",
    "デリバリー":"無し"
    }
  },
  {
    "type": "Feature",
    "geometry": {
       "type": "Point",
       "coordinates":  [ 139.051117,37.920017 ]
    },
    "properties": {
    "店名":"バイキングレストランつばき",
    "ジャンル":"洋食",
    "区域":"中央区",
    "住所":"新潟市中央区川端町6-53ホテルオークラ新潟",
    "店コード":23,
    "電話番号":"025-224-6167",
    "テイクアウト":"有り",
    "デリバリー":"無し"
    }
  },
  {
    "type": "Feature",
    "geometry": {
       "type": "Point",
       "coordinates":  [ 139.059357,37.90929 ]
    },
    "properties": {
    "店名":"IrishPubRobin",
    "ジャンル":"その他",
    "区域":"中央区",
    "住所":"新潟市中央区天神1-19-9INGビル2F",
    "店コード":24,
    "電話番号":"025-241-6677",
    "テイクアウト":"有り",
    "デリバリー":"無し"
    }
  },
  {
    "type": "Feature",
    "geometry": {
       "type": "Point",
       "coordinates":  [ 138.248108,37.081497 ]
    },
    "properties": {
    "店名":"大戸屋ごはん処上越妙高駅前店",
    "ジャンル":"和食",
    "区域":"上越市",
    "住所":"上越市大和5-2-7エンジョイプラザ内",
    "店コード":25,
    "電話番号":"025-520-4100",
    "テイクアウト":"有り",
    "デリバリー":"無し"
    }
  },
  {
    "type": "Feature",
    "geometry": {
       "type": "Point",
       "coordinates":  [ 138.248108,37.081497 ]
    },
    "properties": {
    "店名":"コメダ珈琲店上越妙高駅前店",
    "ジャンル":"喫茶",
    "区域":"上越市",
    "住所":"上越市大和5-2-8",
    "店コード":26,
    "電話番号":"025-520-6453",
    "テイクアウト":"有り",
    "デリバリー":"無し"
    }
  },
  {
    "type": "Feature",
    "geometry": {
       "type": "Point",
       "coordinates":  [ 139.386551,38.117424 ]
    },
    "properties": {
    "店名":"日本海カントリークラブ",
    "ジャンル":"その他",
    "区域":"胎内市",
    "住所":"胎内市荒井浜528-3",
    "店コード":27,
    "電話番号":"0254-46-2121",
    "テイクアウト":"無し",
    "デリバリー":"無し"
    }
  },
  {
    "type": "Feature",
    "geometry": {
       "type": "Point",
       "coordinates":  [ 138.932831,37.105324 ]
    },
    "properties": {
    "店名":"八海山みんなの社員食堂",
    "ジャンル":"和食",
    "区域":"南魚沼市",
    "住所":"南魚沼市長森334-2",
    "店コード":28,
    "電話番号":"0800-800-3865",
    "テイクアウト":"無し",
    "デリバリー":"無し"
    }
  },
  {
    "type": "Feature",
    "geometry": {
       "type": "Point",
       "coordinates":  [ 139.116348,37.931492 ]
    },
    "properties": {
    "店名":"サーティワンアイスクリーム新潟東ロードサイド店",
    "ジャンル":"ファストフード",
    "区域":"東区",
    "住所":"新潟市東区新松崎1-7-5",
    "店コード":29,
    "電話番号":"025-279-3100",
    "テイクアウト":"有り",
    "デリバリー":"無し"
    }
  },
  {
    "type": "Feature",
    "geometry": {
       "type": "Point",
       "coordinates":  [ 139.070068,37.907822 ]
    },
    "properties": {
    "店名":"サーティワンアイスクリーム南笹口店",
    "ジャンル":"ファストフード",
    "区域":"中央区",
    "住所":"新潟市中央区南笹口2-3-46",
    "店コード":30,
    "電話番号":"025-241-3139",
    "テイクアウト":"有り",
    "デリバリー":"無し"
    }
  },
  {
    "type": "Feature",
    "geometry": {
       "type": "Point",
       "coordinates":  [ 139.046051,37.933941 ]
    },
    "properties": {
    "店名":"サーティワンアイスクリーム新潟万代ラブラ2店",
    "ジャンル":"ファストフード",
    "区域":"中央区",
    "住所":"新潟市中央区万代1-4-8ラブラ2",
    "店コード":31,
    "電話番号":"025-282-7731",
    "テイクアウト":"有り",
    "デリバリー":"無し"
    }
  },
  {
    "type": "Feature",
    "geometry": {
       "type": "Point",
       "coordinates":  [ 139.030472,37.892681 ]
    },
    "properties": {
    "店名":"サーティワンアイスクリーム女池店",
    "ジャンル":"ファストフード",
    "区域":"中央区",
    "住所":"新潟市中央区女池上山2-1-10",
    "店コード":32,
    "電話番号":"025-281-3100",
    "テイクアウト":"有り",
    "デリバリー":"無し"
    }
  },
  {
    "type": "Feature",
    "geometry": {
       "type": "Point",
       "coordinates":  [ 139.00354,37.88055 ]
    },
    "properties": {
    "店名":"サーティワンアイスクリーム新潟西アピタ店",
    "ジャンル":"ファストフード",
    "区域":"西区",
    "住所":"新潟市西区小新5-7-21アピタ新潟西店",
    "店コード":33,
    "電話番号":"025-232-3531",
    "テイクアウト":"有り",
    "デリバリー":"無し"
    }
  },
  {
    "type": "Feature",
    "geometry": {
       "type": "Point",
       "coordinates":  [ 139.00473,37.89642 ]
    },
    "properties": {
    "店名":"サーティワンアイスクリームイオン新潟青山ショッピングセンター店",
    "ジャンル":"ファストフード",
    "区域":"西区",
    "住所":"新潟市西区青山2-5-1イオン新潟青山店",
    "店コード":34,
    "電話番号":"025-378-1131",
    "テイクアウト":"有り",
    "デリバリー":"無し"
    }
  },
  {
    "type": "Feature",
    "geometry": {
       "type": "Point",
       "coordinates":  [ 139.024445,37.709023 ]
    },
    "properties": {
    "店名":"サーティワンアイスクリーム亀田アピタ店",
    "ジャンル":"ファストフード",
    "区域":"江南区",
    "住所":"新潟市江南区鵜ノ子4-466アピタ新潟亀田店",
    "店コード":35,
    "電話番号":"025-382-1531",
    "テイクアウト":"有り",
    "デリバリー":"無し"
    }
  },
  {
    "type": "Feature",
    "geometry": {
       "type": "Point",
       "coordinates":  [ 139.081406,37.875832 ]
    },
    "properties": {
    "店名":"サーティワンアイスクリームイオンモール新潟南店",
    "ジャンル":"ファストフード",
    "区域":"江南区",
    "住所":"新潟市江南区下早通柳田1-1-1イオンモール新潟南",
    "店コード":36,
    "電話番号":"025-211-3731",
    "テイクアウト":"有り",
    "デリバリー":"無し"
    }
  },
  {
    "type": "Feature",
    "geometry": {
       "type": "Point",
       "coordinates":  [ 139.112869,37.805195 ]
    },
    "properties": {
    "店名":"サーティワンアイスクリームコモタウン新津店",
    "ジャンル":"ファストフード",
    "区域":"秋葉区",
    "住所":"新潟市秋葉区新津5163-3コモタウン新津",
    "店コード":37,
    "電話番号":"0250-47-8431",
    "テイクアウト":"有り",
    "デリバリー":"無し"
    }
  },
  {
    "type": "Feature",
    "geometry": {
       "type": "Point",
       "coordinates":  [ 138.562531,37.362511 ]
    },
    "properties": {
    "店名":"サーティワンアイスクリームコモタウン柏崎店",
    "ジャンル":"ファストフード",
    "区域":"柏崎市",
    "住所":"柏崎市宝町1-84ウオロク柏崎店",
    "店コード":38,
    "電話番号":"0257-28-5056",
    "テイクアウト":"有り",
    "デリバリー":"無し"
    }
  },
  {
    "type": "Feature",
    "geometry": {
       "type": "Point",
       "coordinates":  [ 138.257858,37.152672 ]
    },
    "properties": {
    "店名":"サーティワンアイスクリームイオン上越店",
    "ジャンル":"ファストフード",
    "区域":"上越市",
    "住所":"上越市富岡3457イオン上越店",
    "店コード":39,
    "電話番号":"025-522-2531",
    "テイクアウト":"有り",
    "デリバリー":"無し"
    }
  },
  {
    "type": "Feature",
    "geometry": {
       "type": "Point",
       "coordinates":  [ 139.491577,38.221275 ]
    },
    "properties": {
    "店名":"サーティワンアイスクリーム村上プラザ店",
    "ジャンル":"ファストフード",
    "区域":"村上市",
    "住所":"村上市仲間町200村上プラザ",
    "店コード":40,
    "電話番号":"0254-75-5631",
    "テイクアウト":"有り",
    "デリバリー":"無し"
    }
  },
  {
    "type": "Feature",
    "geometry": {
       "type": "Point",
       "coordinates":  [ 138.815948,36.990864 ]
    },
    "properties": {
    "店名":"魚沼スイーツガーデンナトゥーラ",
    "ジャンル":"イタリアン",
    "区域":"南魚沼市",
    "住所":"南魚沼市姥島新田701",
    "店コード":41,
    "電話番号":"025-788-0588",
    "テイクアウト":"有り",
    "デリバリー":"無し"
    }
  },
  {
    "type": "Feature",
    "geometry": {
       "type": "Point",
       "coordinates":  [ 138.815948,36.990864 ]
    },
    "properties": {
    "店名":"雪国観光センター魚野の里",
    "ジャンル":"和食",
    "区域":"南魚沼市",
    "住所":"南魚沼市姥島新田699",
    "店コード":42,
    "電話番号":"025-783-6788",
    "テイクアウト":"有り",
    "デリバリー":"無し"
    }
  },
  {
    "type": "Feature",
    "geometry": {
       "type": "Point",
       "coordinates":  [ 139.473587,38.226013 ]
    },
    "properties": {
    "店名":"和食処悠流里",
    "ジャンル":"和食",
    "区域":"村上市",
    "住所":"村上市塩町4-5",
    "店コード":43,
    "電話番号":"0254-53-6288",
    "テイクアウト":"有り",
    "デリバリー":"無し"
    }
  },
  {
    "type": "Feature",
    "geometry": {
       "type": "Point",
       "coordinates":  [ 139.037735,37.915577 ]
    },
    "properties": {
    "店名":"呑処十三夜",
    "ジャンル":"居酒屋",
    "区域":"中央区",
    "住所":"新潟市中央区東大通1-5-10松原第一ビル3F",
    "店コード":44,
    "電話番号":"025-244-0138",
    "テイクアウト":"有り",
    "デリバリー":"無し"
    }
  },
  {
    "type": "Feature",
    "geometry": {
       "type": "Point",
       "coordinates":  [ 138.995682,37.286514 ]
    },
    "properties": {
    "店名":"神湯とふれあいの里",
    "ジャンル":"和食",
    "区域":"魚沼市",
    "住所":"魚沼市清本583",
    "店コード":45,
    "電話番号":"025-799-3350",
    "テイクアウト":"有り",
    "デリバリー":"無し"
    }
  },
  {
    "type": "Feature",
    "geometry": {
       "type": "Point",
       "coordinates":  [ 139.056168,37.918686 ]
    },
    "properties": {
    "店名":"四川飯店新潟",
    "ジャンル":"中華",
    "区域":"中央区",
    "住所":"新潟市中央区万代3-1-1メディアシップ2F",
    "店コード":46,
    "電話番号":"025-240-0050",
    "テイクアウト":"有り",
    "デリバリー":"有り"
    }
  },
  {
    "type": "Feature",
    "geometry": {
       "type": "Point",
       "coordinates":  [ 139.037735,37.915577 ]
    },
    "properties": {
    "店名":"越後一会十郎",
    "ジャンル":"居酒屋",
    "区域":"中央区",
    "住所":"新潟市中央区東大通2-1-7松屋ビル1F",
    "店コード":47,
    "電話番号":"025-247-5106",
    "テイクアウト":"有り",
    "デリバリー":"無し"
    }
  },
  {
    "type": "Feature",
    "geometry": {
       "type": "Point",
       "coordinates":  [ 139.06601,37.914478 ]
    },
    "properties": {
    "店名":"Spanish＆Oysterマリスコ",
    "ジャンル":"居酒屋",
    "区域":"中央区",
    "住所":"新潟市中央区花園1-2-2コープシティ花園ガレッソ2F",
    "店コード":48,
    "電話番号":"025-278-3956",
    "テイクアウト":"有り",
    "デリバリー":"無し"
    }
  },
  {
    "type": "Feature",
    "geometry": {
       "type": "Point",
       "coordinates":  [ 139.058426,37.916298 ]
    },
    "properties": {
    "店名":"肉料理専門ワインバルNIQ",
    "ジャンル":"その他",
    "区域":"中央区",
    "住所":"新潟市中央区弁天2-4-19",
    "店コード":49,
    "電話番号":"025-282-5529",
    "テイクアウト":"有り",
    "デリバリー":"無し"
    }
  },
  {
    "type": "Feature",
    "geometry": {
       "type": "Point",
       "coordinates":  [ 139.063995,37.914116 ]
    },
    "properties": {
    "店名":"焼肉バル焼NIQ",
    "ジャンル":"その他",
    "区域":"中央区",
    "住所":"新潟市中央区花園1-6-11GEO花園1F",
    "店コード":50,
    "電話番号":"025-384-4129",
    "テイクアウト":"有り",
    "デリバリー":"無し"
    }
  },
  {
    "type": "Feature",
    "geometry": {
       "type": "Point",
       "coordinates":  [ 139.053909,37.917858 ]
    },
    "properties": {
    "店名":"マテリアルカフェ万代店",
    "ジャンル":"喫茶",
    "区域":"中央区",
    "住所":"新潟市中央区万代1-6-1万代バスセンタービル2F",
    "店コード":51,
    "電話番号":"025-385-6066",
    "テイクアウト":"有り",
    "デリバリー":"無し"
    }
  },
  {
    "type": "Feature",
    "geometry": {
       "type": "Point",
       "coordinates":  [ 138.241119,37.112606 ]
    },
    "properties": {
    "店名":"長養館",
    "ジャンル":"割烹",
    "区域":"上越市",
    "住所":"上越市寺町2-1-8",
    "店コード":52,
    "電話番号":"025-523-5481",
    "テイクアウト":"有り",
    "デリバリー":"有り"
    }
  },
  {
    "type": "Feature",
    "geometry": {
       "type": "Point",
       "coordinates":  [ 139.523163,38.28257 ]
    },
    "properties": {
    "店名":"朝日みどりの里食堂",
    "ジャンル":"和食",
    "区域":"村上市",
    "住所":"村上市猿沢1215",
    "店コード":53,
    "電話番号":"0254-62-7813",
    "テイクアウト":"有り",
    "デリバリー":"無し"
    }
  },
  {
    "type": "Feature",
    "geometry": {
       "type": "Point",
       "coordinates":  [ 139.404922,38.059593 ]
    },
    "properties": {
    "店名":"中条グランドホテルレストランバロン",
    "ジャンル":"洋食",
    "区域":"胎内市",
    "住所":"胎内市東本町25-50",
    "店コード":54,
    "電話番号":"0254-43-6060",
    "テイクアウト":"有り",
    "デリバリー":"有り"
    }
  },
  {
    "type": "Feature",
    "geometry": {
       "type": "Point",
       "coordinates":  [ 138.486465,37.341232 ]
    },
    "properties": {
    "店名":"キーウエスト海鮮自慢の店福浦",
    "ジャンル":"和食",
    "区域":"柏崎市",
    "住所":"柏崎市青海川133-1",
    "店コード":55,
    "電話番号":"0257-23-6293",
    "テイクアウト":"無し",
    "デリバリー":"無し"
    }
  },
  {
    "type": "Feature",
    "geometry": {
       "type": "Point",
       "coordinates":  [ 138.474838,37.33065 ]
    },
    "properties": {
    "店名":"米山サービスエリア下り線レストラン",
    "ジャンル":"和食",
    "区域":"柏崎市",
    "住所":"柏崎市笠島235",
    "店コード":56,
    "電話番号":"0257-26-2000",
    "テイクアウト":"無し",
    "デリバリー":"無し"
    }
  },
  {
    "type": "Feature",
    "geometry": {
       "type": "Point",
       "coordinates":  [ 138.369308,37.244595 ]
    },
    "properties": {
    "店名":"レストラン味彩",
    "ジャンル":"和食",
    "区域":"上越市",
    "住所":"上越市吉川区長峰100",
    "店コード":57,
    "電話番号":"025-548-3911",
    "テイクアウト":"有り",
    "デリバリー":"無し"
    }
  },
  {
    "type": "Feature",
    "geometry": {
       "type": "Point",
       "coordinates":  [ 139.004227,37.891888 ]
    },
    "properties": {
    "店名":"元町珈琲新潟青山の離れ",
    "ジャンル":"喫茶",
    "区域":"西区",
    "住所":"新潟市西区平島1-3-4",
    "店コード":58,
    "電話番号":"025-201-6170",
    "テイクアウト":"有り",
    "デリバリー":"無し"
    }
  },
  {
    "type": "Feature",
    "geometry": {
       "type": "Point",
       "coordinates":  [ 139.060455,37.913544 ]
    },
    "properties": {
    "店名":"焼肉たっちゃん",
    "ジャンル":"その他",
    "区域":"中央区",
    "住所":"新潟市中央区東大通1-11-12パルコミニオンビル1F",
    "店コード":59,
    "電話番号":"025-245-4941",
    "テイクアウト":"有り",
    "デリバリー":"無し"
    }
  },
  {
    "type": "Feature",
    "geometry": {
       "type": "Point",
       "coordinates":  [ 139.460556,38.172798 ]
    },
    "properties": {
    "店名":"穂菜味亭",
    "ジャンル":"和食",
    "区域":"村上市",
    "住所":"村上市九日市809",
    "店コード":60,
    "電話番号":"0254-66-8103",
    "テイクアウト":"有り",
    "デリバリー":"有り"
    }
  },
  {
    "type": "Feature",
    "geometry": {
       "type": "Point",
       "coordinates":  [ 138.798431,37.313465 ]
    },
    "properties": {
    "店名":"ホテル千景",
    "ジャンル":"その他",
    "区域":"小千谷市",
    "住所":"小千谷市城内2-2-1",
    "店コード":61,
    "電話番号":"0258-82-5651",
    "テイクアウト":"無し",
    "デリバリー":"無し"
    }
  },
  {
    "type": "Feature",
    "geometry": {
       "type": "Point",
       "coordinates":  [ 138.882782,37.324604 ]
    },
    "properties": {
    "店名":"CabanedeLuxeレストラン古志高原",
    "ジャンル":"フレンチ",
    "区域":"長岡市",
    "住所":"長岡市山古志竹沢甲910",
    "店コード":62,
    "電話番号":"0258-86-5112",
    "テイクアウト":"有り",
    "デリバリー":"有り"
    }
  },
  {
    "type": "Feature",
    "geometry": {
       "type": "Point",
       "coordinates":  [ 138.607941,37.133778 ]
    },
    "properties": {
    "店名":"越後まつだい里山食堂",
    "ジャンル":"喫茶",
    "区域":"十日町市",
    "住所":"十日町市松代3743-1まつだい「農舞台」内",
    "店コード":63,
    "電話番号":"025-594-7181",
    "テイクアウト":"有り",
    "デリバリー":"無し"
    }
  },
  {
    "type": "Feature",
    "geometry": {
       "type": "Point",
       "coordinates":  [ 138.760132,37.13903 ]
    },
    "properties": {
    "店名":"越後しなのがわバル",
    "ジャンル":"喫茶",
    "区域":"十日町市",
    "住所":"十日町市本町6-1-71-2越後妻有里山現代美術館〔キナーレ〕2階",
    "店コード":64,
    "電話番号":"025-761-7371",
    "テイクアウト":"有り",
    "デリバリー":"無し"
    }
  },
  {
    "type": "Feature",
    "geometry": {
       "type": "Point",
       "coordinates":  [ 138.677933,37.107426 ]
    },
    "properties": {
    "店名":"HachiCafe",
    "ジャンル":"軽食",
    "区域":"十日町市",
    "住所":"十日町市真田甲2310-1絵本と木の実の美術館内",
    "店コード":65,
    "電話番号":"025-752-0066",
    "テイクアウト":"有り",
    "デリバリー":"無し"
    }
  },
  {
    "type": "Feature",
    "geometry": {
       "type": "Point",
       "coordinates":  [ 138.761551,37.134357 ]
    },
    "properties": {
    "店名":"越後十日町小嶋屋本店",
    "ジャンル":"和食",
    "区域":"十日町市",
    "住所":"十日町市本町4-16-1",
    "店コード":66,
    "電話番号":"025-757-3155",
    "テイクアウト":"有り",
    "デリバリー":"有り"
    }
  },
  {
    "type": "Feature",
    "geometry": {
       "type": "Point",
       "coordinates":  [ 139.020462,37.894764 ]
    },
    "properties": {
    "店名":"越後十日町小嶋屋新潟店",
    "ジャンル":"和食",
    "区域":"中央区",
    "住所":"新潟市中央区網川原1-21-8",
    "店コード":67,
    "電話番号":"025-283-3104",
    "テイクアウト":"有り",
    "デリバリー":"無し"
    }
  },
  {
    "type": "Feature",
    "geometry": {
       "type": "Point",
       "coordinates":  [ 138.806824,37.451694 ]
    },
    "properties": {
    "店名":"越後十日町小嶋屋長岡店",
    "ジャンル":"和食",
    "区域":"長岡市",
    "住所":"長岡市喜多町975-1",
    "店コード":68,
    "電話番号":"0258-89-7411",
    "テイクアウト":"有り",
    "デリバリー":"無し"
    }
  },
  {
    "type": "Feature",
    "geometry": {
       "type": "Point",
       "coordinates":  [ 138.257858,37.152672 ]
    },
    "properties": {
    "店名":"越後十日町小嶋屋上越店",
    "ジャンル":"和食",
    "区域":"上越市",
    "住所":"上越市富岡3458イオン上越店内",
    "店コード":69,
    "電話番号":"025-521-2540",
    "テイクアウト":"有り",
    "デリバリー":"無し"
    }
  },
  {
    "type": "Feature",
    "geometry": {
       "type": "Point",
       "coordinates":  [ 138.750931,37.143288 ]
    },
    "properties": {
    "店名":"越後十日町小嶋屋和亭",
    "ジャンル":"和食",
    "区域":"十日町市",
    "住所":"十日町市下島寅乙407-1",
    "店コード":70,
    "電話番号":"025-757-1513",
    "テイクアウト":"有り",
    "デリバリー":"無し"
    }
  },
  {
    "type": "Feature",
    "geometry": {
       "type": "Point",
       "coordinates":  [ 138.795273,36.944065 ]
    },
    "properties": {
    "店名":"越後十日町小嶋屋越後湯沢エキナカ店",
    "ジャンル":"和食",
    "区域":"湯沢町",
    "住所":"南魚沼郡湯沢町大字湯沢2427-1越後湯沢駅構内",
    "店コード":71,
    "電話番号":"025-785-2081",
    "テイクアウト":"無し",
    "デリバリー":"無し"
    }
  },
  {
    "type": "Feature",
    "geometry": {
       "type": "Point",
       "coordinates":  [ 138.854736,37.447247 ]
    },
    "properties": {
    "店名":"ドトールコーヒーショップ長岡東口店",
    "ジャンル":"喫茶",
    "区域":"長岡市",
    "住所":"長岡市台町2-4-56EPLAZA1F",
    "店コード":72,
    "電話番号":"0258-34-5500",
    "テイクアウト":"有り",
    "デリバリー":"無し"
    }
  },
  {
    "type": "Feature",
    "geometry": {
       "type": "Point",
       "coordinates":  [ 139.004028,37.598488 ]
    },
    "properties": {
    "店名":"割烹旅館公楽",
    "ジャンル":"割烹",
    "区域":"三条市",
    "住所":"三条市高岡786",
    "店コード":73,
    "電話番号":"0256-38-6539",
    "テイクアウト":"有り",
    "デリバリー":"有り"
    }
  },
  {
    "type": "Feature",
    "geometry": {
       "type": "Point",
       "coordinates":  [ 139.041687,37.918102 ]
    },
    "properties": {
    "店名":"西堀じゅんちゃん",
    "ジャンル":"居酒屋",
    "区域":"中央区",
    "住所":"新潟市中央区西堀前通3-724-2",
    "店コード":74,
    "電話番号":"025-225-8812",
    "テイクアウト":"無し",
    "デリバリー":"無し"
    }
  },
  {
    "type": "Feature",
    "geometry": {
       "type": "Point",
       "coordinates":  [ 139.334381,37.94878 ]
    },
    "properties": {
    "店名":"中華酒菜香",
    "ジャンル":"中華",
    "区域":"新発田市",
    "住所":"新発田市本町1-3-5第5樫内ビル1階-C",
    "店コード":75,
    "電話番号":"0254-28-7388",
    "テイクアウト":"有り",
    "デリバリー":"無し"
    }
  },
  {
    "type": "Feature",
    "geometry": {
       "type": "Point",
       "coordinates":  [ 139.328293,37.943176 ]
    },
    "properties": {
    "店名":"米蔵ココロ",
    "ジャンル":"その他",
    "区域":"新発田市",
    "住所":"新発田市大栄町7-9-32清水園内",
    "店コード":76,
    "電話番号":"0254-28-7378",
    "テイクアウト":"有り",
    "デリバリー":"無し"
    }
  },
  {
    "type": "Feature",
    "geometry": {
       "type": "Point",
       "coordinates":  [ 139.340591,37.940147 ]
    },
    "properties": {
    "店名":"OnchaCafe",
    "ジャンル":"喫茶",
    "区域":"新発田市",
    "住所":"新発田市豊町4-5-17",
    "店コード":77,
    "電話番号":"0254-21-1930",
    "テイクアウト":"無し",
    "デリバリー":"無し"
    }
  },
  {
    "type": "Feature",
    "geometry": {
       "type": "Point",
       "coordinates":  [ 138.894165,37.746666 ]
    },
    "properties": {
    "店名":"ごん蔵巻店",
    "ジャンル":"居酒屋",
    "区域":"西蒲区",
    "住所":"新潟市西蒲区赤鏥1007-1",
    "店コード":78,
    "電話番号":"0256-73-4711",
    "テイクアウト":"有り",
    "デリバリー":"有り"
    }
  },
  {
    "type": "Feature",
    "geometry": {
       "type": "Point",
       "coordinates":  [ 138.937225,37.649399 ]
    },
    "properties": {
    "店名":"ごん蔵県央店",
    "ジャンル":"居酒屋",
    "区域":"燕市",
    "住所":"燕市井土巻3-188",
    "店コード":79,
    "電話番号":"0256-64-5950",
    "テイクアウト":"有り",
    "デリバリー":"無し"
    }
  },
  {
    "type": "Feature",
    "geometry": {
       "type": "Point",
       "coordinates":  [ 138.842758,37.625412 ]
    },
    "properties": {
    "店名":"よね蔵分水店",
    "ジャンル":"居酒屋",
    "区域":"燕市",
    "住所":"燕市分水栄町3-9",
    "店コード":80,
    "電話番号":"0256-98-5188",
    "テイクアウト":"有り",
    "デリバリー":"有り"
    }
  },
  {
    "type": "Feature",
    "geometry": {
       "type": "Point",
       "coordinates":  [ 138.877502,37.67926 ]
    },
    "properties": {
    "店名":"よね蔵吉田店",
    "ジャンル":"居酒屋",
    "区域":"燕市",
    "住所":"燕市吉田下中野247-28",
    "店コード":81,
    "電話番号":"0256-93-5600",
    "テイクアウト":"有り",
    "デリバリー":"有り"
    }
  },
  {
    "type": "Feature",
    "geometry": {
       "type": "Point",
       "coordinates":  [ 138.85257,37.448154 ]
    },
    "properties": {
    "店名":"キンキラハイボール酒場",
    "ジャンル":"居酒屋",
    "区域":"長岡市",
    "住所":"長岡市城内町2-3-6",
    "店コード":82,
    "電話番号":"0258-89-6161",
    "テイクアウト":"有り",
    "デリバリー":"有り"
    }
  },
  {
    "type": "Feature",
    "geometry": {
       "type": "Point",
       "coordinates":  [ 138.852417,37.447742 ]
    },
    "properties": {
    "店名":"たこの壺",
    "ジャンル":"居酒屋",
    "区域":"長岡市",
    "住所":"長岡市城内町2-2-2",
    "店コード":83,
    "電話番号":"0258-36-0311",
    "テイクアウト":"有り",
    "デリバリー":"有り"
    }
  },
  {
    "type": "Feature",
    "geometry": {
       "type": "Point",
       "coordinates":  [ 139.05632,37.910034 ]
    },
    "properties": {
    "店名":"ICHIE",
    "ジャンル":"居酒屋",
    "区域":"中央区",
    "住所":"新潟市中央区天神2-137-37",
    "店コード":84,
    "電話番号":"025-255-0112",
    "テイクアウト":"有り",
    "デリバリー":"有り"
    }
  },
  {
    "type": "Feature",
    "geometry": {
       "type": "Point",
       "coordinates":  [ 139.058914,37.913544 ]
    },
    "properties": {
    "店名":"えびす鯛新潟駅前店",
    "ジャンル":"居酒屋",
    "区域":"中央区",
    "住所":"新潟市中央区弁天1-3-3",
    "店コード":85,
    "電話番号":"025-255-5522",
    "テイクアウト":"有り",
    "デリバリー":"有り"
    }
  },
  {
    "type": "Feature",
    "geometry": {
       "type": "Point",
       "coordinates":  [ 138.241867,37.111549 ]
    },
    "properties": {
    "店名":"株式会社宇喜世",
    "ジャンル":"和食",
    "区域":"上越市",
    "住所":"上越市仲町3-5-4",
    "店コード":86,
    "電話番号":"025-524-2217",
    "テイクアウト":"有り",
    "デリバリー":"有り"
    }
  },
  {
    "type": "Feature",
    "geometry": {
       "type": "Point",
       "coordinates":  [ 138.852448,37.449982 ]
    },
    "properties": {
    "店名":"和MAKダイニング月乃兎",
    "ジャンル":"居酒屋",
    "区域":"長岡市",
    "住所":"長岡市城内町3-3-2城内通販ビル1-A",
    "店コード":87,
    "電話番号":"0258-94-5636",
    "テイクアウト":"無し",
    "デリバリー":"無し"
    }
  },
  {
    "type": "Feature",
    "geometry": {
       "type": "Point",
       "coordinates":  [ 138.854538,37.450012 ]
    },
    "properties": {
    "店名":"和MAKダイニング月乃兎～結～",
    "ジャンル":"居酒屋",
    "区域":"長岡市",
    "住所":"長岡市城内町3-8-2城内ドルミービル2F",
    "店コード":88,
    "電話番号":"0258-94-5636",
    "テイクアウト":"無し",
    "デリバリー":"無し"
    }
  },
  {
    "type": "Feature",
    "geometry": {
       "type": "Point",
       "coordinates":  [ 139.019531,37.872704 ]
    },
    "properties": {
    "店名":"新潟B級グルメ横町",
    "ジャンル":"その他",
    "区域":"西区",
    "住所":"新潟市西区山田2307新潟ふるさと村内",
    "店コード":89,
    "電話番号":"025-230-3000",
    "テイクアウト":"有り",
    "デリバリー":"無し"
    }
  },
  {
    "type": "Feature",
    "geometry": {
       "type": "Point",
       "coordinates":  [ 139.019531,37.872704 ]
    },
    "properties": {
    "店名":"団体レストラン番屋亭",
    "ジャンル":"和食",
    "区域":"西区",
    "住所":"新潟市西区山田2307新潟ふるさと村内",
    "店コード":90,
    "電話番号":"025-230-3000",
    "テイクアウト":"無し",
    "デリバリー":"無し"
    }
  },
  {
    "type": "Feature",
    "geometry": {
       "type": "Point",
       "coordinates":  [ 139.019531,37.872704 ]
    },
    "properties": {
    "店名":"郷土料理赤とんぼ・ふるさと寿司",
    "ジャンル":"和食",
    "区域":"西区",
    "住所":"新潟市西区山田2307新潟ふるさと村内",
    "店コード":91,
    "電話番号":"025-230-3000",
    "テイクアウト":"無し",
    "デリバリー":"無し"
    }
  },
  {
    "type": "Feature",
    "geometry": {
       "type": "Point",
       "coordinates":  [ 138.93428,37.355751 ]
    },
    "properties": {
    "店名":"食堂やまびこ",
    "ジャンル":"和食",
    "区域":"長岡市",
    "住所":"長岡市山古志種苧原3244-3",
    "店コード":92,
    "電話番号":"0258-59-2980",
    "テイクアウト":"無し",
    "デリバリー":"無し"
    }
  },
  {
    "type": "Feature",
    "geometry": {
       "type": "Point",
       "coordinates":  [ 138.25,37.080654 ]
    },
    "properties": {
    "店名":"7つのおもてなし",
    "ジャンル":"軽食",
    "区域":"上越市",
    "住所":"上越市大和2-1-1上越妙高駅2F",
    "店コード":93,
    "電話番号":"025-520-7520",
    "テイクアウト":"有り",
    "デリバリー":"無し"
    }
  },
  {
    "type": "Feature",
    "geometry": {
       "type": "Point",
       "coordinates":  [ 138.984421,37.87962 ]
    },
    "properties": {
    "店名":"天心坊大堀店",
    "ジャンル":"ラーメン",
    "区域":"西区",
    "住所":"新潟市西区坂井東1-6-15",
    "店コード":94,
    "電話番号":"025-231-0007",
    "テイクアウト":"有り",
    "デリバリー":"有り"
    }
  },
  {
    "type": "Feature",
    "geometry": {
       "type": "Point",
       "coordinates":  [ 138.889496,37.53994 ]
    },
    "properties": {
    "店名":"天心坊見附店",
    "ジャンル":"ラーメン",
    "区域":"見附市",
    "住所":"見附市上新田町725-1スーパーセンタープラント5見附店内",
    "店コード":95,
    "電話番号":"0258-66-8088",
    "テイクアウト":"無し",
    "デリバリー":"無し"
    }
  },
  {
    "type": "Feature",
    "geometry": {
       "type": "Point",
       "coordinates":  [ 139.14267,37.851299 ]
    },
    "properties": {
    "店名":"天心坊横越店",
    "ジャンル":"ラーメン",
    "区域":"江南区",
    "住所":"新潟市江南区横越中央8-2-2スーパーセンタープラント5横越店内",
    "店コード":96,
    "電話番号":"025-385-1050",
    "テイクアウト":"無し",
    "デリバリー":"無し"
    }
  },
  {
    "type": "Feature",
    "geometry": {
       "type": "Point",
       "coordinates":  [ 138.888214,37.542023 ]
    },
    "properties": {
    "店名":"麺屋長衛門",
    "ジャンル":"ラーメン",
    "区域":"見附市",
    "住所":"見附市上新田町下野沖404-1",
    "店コード":97,
    "電話番号":"0258-66-1090",
    "テイクアウト":"有り",
    "デリバリー":"無し"
    }
  },
  {
    "type": "Feature",
    "geometry": {
       "type": "Point",
       "coordinates":  [ 139.037735,37.915577 ]
    },
    "properties": {
    "店名":"花柚子",
    "ジャンル":"和食",
    "区域":"中央区",
    "住所":"新潟市中央区東大通1-5-10松原第一ビル3階",
    "店コード":98,
    "電話番号":"025-385-7973",
    "テイクアウト":"無し",
    "デリバリー":"無し"
    }
  },
  {
    "type": "Feature",
    "geometry": {
       "type": "Point",
       "coordinates":  [ 138.962067,37.231297 ]
    },
    "properties": {
    "店名":"居酒屋菊水",
    "ジャンル":"居酒屋",
    "区域":"魚沼市",
    "住所":"魚沼市小出島505-1",
    "店コード":99,
    "電話番号":"025-792-0547",
    "テイクアウト":"有り",
    "デリバリー":"無し"
    }
  },
  {
    "type": "Feature",
    "geometry": {
       "type": "Point",
       "coordinates":  [ 139.28215,37.970749 ]
    },
    "properties": {
    "店名":"味わい処湯楽",
    "ジャンル":"和食",
    "区域":"聖籠町",
    "住所":"北蒲原郡聖籠町諏訪山652-3聖籠観音の湯ざぶ～ん館内",
    "店コード":100,
    "電話番号":"0254-27-1126",
    "テイクアウト":"無し",
    "デリバリー":"無し"
    }
  },
  {
    "type": "Feature",
    "geometry": {
       "type": "Point",
       "coordinates":  [ 138.926361,37.528923 ]
    },
    "properties": {
    "店名":"割烹岡田屋",
    "ジャンル":"割烹",
    "区域":"見附市",
    "住所":"見附市本町3-12-19",
    "店コード":101,
    "電話番号":"0258-62-2739",
    "テイクアウト":"有り",
    "デリバリー":"有り"
    }
  },
  {
    "type": "Feature",
    "geometry": {
       "type": "Point",
       "coordinates":  [ 138.891754,37.342411 ]
    },
    "properties": {
    "店名":"にこにこひろば",
    "ジャンル":"軽食",
    "区域":"長岡市",
    "住所":"長岡市山古志虫亀759",
    "店コード":102,
    "電話番号":"080-1335-2386",
    "テイクアウト":"有り",
    "デリバリー":"無し"
    }
  },
  {
    "type": "Feature",
    "geometry": {
       "type": "Point",
       "coordinates":  [ 138.243744,37.10807 ]
    },
    "properties": {
    "店名":"富寿し南本町店",
    "ジャンル":"寿司",
    "区域":"上越市",
    "住所":"上越市南本町2-8-51",
    "店コード":103,
    "電話番号":"025-524-6136",
    "テイクアウト":"有り",
    "デリバリー":"有り"
    }
  },
  {
    "type": "Feature",
    "geometry": {
       "type": "Point",
       "coordinates":  [ 138.243668,37.113949 ]
    },
    "properties": {
    "店名":"富寿し高田駅前店",
    "ジャンル":"寿司",
    "区域":"上越市",
    "住所":"上越市仲町4-7-26",
    "店コード":104,
    "電話番号":"025-524-5181",
    "テイクアウト":"有り",
    "デリバリー":"有り"
    }
  },
  {
    "type": "Feature",
    "geometry": {
       "type": "Point",
       "coordinates":  [ 138.237061,37.149529 ]
    },
    "properties": {
    "店名":"富寿し春日亭",
    "ジャンル":"寿司",
    "区域":"上越市",
    "住所":"上越市新光町1-7-7",
    "店コード":105,
    "電話番号":"025-525-8215",
    "テイクアウト":"有り",
    "デリバリー":"有り"
    }
  },
  {
    "type": "Feature",
    "geometry": {
       "type": "Point",
       "coordinates":  [ 138.243362,37.174503 ]
    },
    "properties": {
    "店名":"富寿し直江津店",
    "ジャンル":"寿司",
    "区域":"上越市",
    "住所":"上越市中央1-10-16",
    "店コード":106,
    "電話番号":"025-543-3795",
    "テイクアウト":"有り",
    "デリバリー":"有り"
    }
  },
  {
    "type": "Feature",
    "geometry": {
       "type": "Point",
       "coordinates":  [ 138.237061,37.149529 ]
    },
    "properties": {
    "店名":"廻鮮富寿し極みや上越中央店",
    "ジャンル":"寿司",
    "区域":"上越市",
    "住所":"上越市新光町1-7",
    "店コード":107,
    "電話番号":"025-521-7211",
    "テイクアウト":"有り",
    "デリバリー":"無し"
    }
  },
  {
    "type": "Feature",
    "geometry": {
       "type": "Point",
       "coordinates":  [ 138.256805,37.16618 ]
    },
    "properties": {
    "店名":"廻鮮富寿し上越みなと店",
    "ジャンル":"寿司",
    "区域":"上越市",
    "住所":"上越市下源入277-1",
    "店コード":108,
    "電話番号":"025-531-3737",
    "テイクアウト":"有り",
    "デリバリー":"無し"
    }
  },
  {
    "type": "Feature",
    "geometry": {
       "type": "Point",
       "coordinates":  [ 139.059967,37.914242 ]
    },
    "properties": {
    "店名":"富寿し新潟駅前店",
    "ジャンル":"寿司",
    "区域":"中央区",
    "住所":"新潟市中央区東大通1-2-5",
    "店コード":109,
    "電話番号":"025-242-1212",
    "テイクアウト":"有り",
    "デリバリー":"無し"
    }
  },
  {
    "type": "Feature",
    "geometry": {
       "type": "Point",
       "coordinates":  [ 138.243668,37.113949 ]
    },
    "properties": {
    "店名":"シーフードダイニングTOMMYSAY",
    "ジャンル":"洋食",
    "区域":"上越市",
    "住所":"上越市仲町4-7-24",
    "店コード":110,
    "電話番号":"025-521-2277",
    "テイクアウト":"有り",
    "デリバリー":"無し"
    }
  },
  {
    "type": "Feature",
    "geometry": {
       "type": "Point",
       "coordinates":  [ 139.081406,37.875832 ]
    },
    "properties": {
    "店名":"富寿し新潟南店",
    "ジャンル":"寿司",
    "区域":"江南区",
    "住所":"新潟市江南区下早通柳田1-1-1イオン新潟南店1F",
    "店コード":111,
    "電話番号":"025-383-5650",
    "テイクアウト":"有り",
    "デリバリー":"無し"
    }
  },
  {
    "type": "Feature",
    "geometry": {
       "type": "Point",
       "coordinates":  [ 139.081406,37.875832 ]
    },
    "properties": {
    "店名":"海鮮丼富寿し新潟南店",
    "ジャンル":"寿司",
    "区域":"江南区",
    "住所":"新潟市江南区下早通柳田1-1-1イオン新潟南店3F",
    "店コード":112,
    "電話番号":"025-256-8570",
    "テイクアウト":"有り",
    "デリバリー":"無し"
    }
  },
  {
    "type": "Feature",
    "geometry": {
       "type": "Point",
       "coordinates":  [ 138.819595,37.454716 ]
    },
    "properties": {
    "店名":"廻鮮富寿し長岡古正寺店",
    "ジャンル":"寿司",
    "区域":"長岡市",
    "住所":"長岡市古正寺1-231-5",
    "店コード":113,
    "電話番号":"0258-86-8160",
    "テイクアウト":"有り",
    "デリバリー":"無し"
    }
  },
  {
    "type": "Feature",
    "geometry": {
       "type": "Point",
       "coordinates":  [ 139.05629,37.915974 ]
    },
    "properties": {
    "店名":"富寿し新潟万代店",
    "ジャンル":"寿司",
    "区域":"中央区",
    "住所":"新潟市中央区万代1-3-1万代シネモール7階",
    "店コード":114,
    "電話番号":"025-246-7878",
    "テイクアウト":"有り",
    "デリバリー":"無し"
    }
  },
  {
    "type": "Feature",
    "geometry": {
       "type": "Point",
       "coordinates":  [ 138.985687,37.712666 ]
    },
    "properties": {
    "店名":"富寿し膳",
    "ジャンル":"寿司",
    "区域":"中央区",
    "住所":"新潟市中央区川端町6-53ホテルオークラ新潟3F",
    "店コード":115,
    "電話番号":"025-224-6361",
    "テイクアウト":"有り",
    "デリバリー":"無し"
    }
  },
  {
    "type": "Feature",
    "geometry": {
       "type": "Point",
       "coordinates":  [ 138.851379,37.446819 ]
    },
    "properties": {
    "店名":"富寿し長岡駅前店",
    "ジャンル":"寿司",
    "区域":"長岡市",
    "住所":"長岡市大手通1-4-3",
    "店コード":116,
    "電話番号":"0258-30-0888",
    "テイクアウト":"有り",
    "デリバリー":"無し"
    }
  },
  {
    "type": "Feature",
    "geometry": {
       "type": "Point",
       "coordinates":  [ 139.037735,37.915577 ]
    },
    "properties": {
    "店名":"極DINING若旦那新潟駅前店",
    "ジャンル":"居酒屋",
    "区域":"中央区",
    "住所":"新潟市中央区花園1-5-9ベロウ花園1F",
    "店コード":117,
    "電話番号":"025-243-5900",
    "テイクアウト":"有り",
    "デリバリー":"有り"
    }
  },
  {
    "type": "Feature",
    "geometry": {
       "type": "Point",
       "coordinates":  [ 139.054459,37.906925 ]
    },
    "properties": {
    "店名":"極DINING若旦那新潟駅南店",
    "ジャンル":"居酒屋",
    "区域":"中央区",
    "住所":"新潟市中央区米山1-9-3鈴木ビル1F",
    "店コード":118,
    "電話番号":"025-384-4365",
    "テイクアウト":"有り",
    "デリバリー":"有り"
    }
  },
  {
    "type": "Feature",
    "geometry": {
       "type": "Point",
       "coordinates":  [ 139.037735,37.915577 ]
    },
    "properties": {
    "店名":"極DINING若旦那別邸",
    "ジャンル":"居酒屋",
    "区域":"中央区",
    "住所":"新潟市中央区花園1-7-10ホテルリブマックス1F",
    "店コード":119,
    "電話番号":"025-250-7745",
    "テイクアウト":"有り",
    "デリバリー":"有り"
    }
  },
  {
    "type": "Feature",
    "geometry": {
       "type": "Point",
       "coordinates":  [ 139.038315,37.929607 ]
    },
    "properties": {
    "店名":"極DINING若旦那新潟駅前弁天通り店",
    "ジャンル":"居酒屋",
    "区域":"中央区",
    "住所":"新潟市中央区東大通1-2-8河竹ビル2F",
    "店コード":120,
    "電話番号":"025-384-8909",
    "テイクアウト":"有り",
    "デリバリー":"有り"
    }
  },
  {
    "type": "Feature",
    "geometry": {
       "type": "Point",
       "coordinates":  [ 138.852249,37.447361 ]
    },
    "properties": {
    "店名":"極DINING若旦那長岡駅前店",
    "ジャンル":"居酒屋",
    "区域":"長岡市",
    "住所":"長岡市大手通1-3-2",
    "店コード":121,
    "電話番号":"0258-86-7886",
    "テイクアウト":"有り",
    "デリバリー":"有り"
    }
  },
  {
    "type": "Feature",
    "geometry": {
       "type": "Point",
       "coordinates":  [ 139.037735,37.915577 ]
    },
    "properties": {
    "店名":"PublicStand新潟駅前店",
    "ジャンル":"その他",
    "区域":"中央区",
    "住所":"新潟市中央区弁天1-2-152nd弁天INGビル1F",
    "店コード":122,
    "電話番号":"025-278-8080",
    "テイクアウト":"無し",
    "デリバリー":"無し"
    }
  },
  {
    "type": "Feature",
    "geometry": {
       "type": "Point",
       "coordinates":  [ 139.053909,37.917858 ]
    },
    "properties": {
    "店名":"MR.&MRS.CAFE",
    "ジャンル":"喫茶",
    "区域":"中央区",
    "住所":"新潟市中央区万代1-3-1万代シネモールビル2F",
    "店コード":123,
    "電話番号":"025-278-8544",
    "テイクアウト":"有り",
    "デリバリー":"有り"
    }
  },
  {
    "type": "Feature",
    "geometry": {
       "type": "Point",
       "coordinates":  [ 139.038315,37.929607 ]
    },
    "properties": {
    "店名":"SandwichBox",
    "ジャンル":"喫茶",
    "区域":"中央区",
    "住所":"新潟市中央区東大通2-2-9トーカン万代第二ビューハイツ102",
    "店コード":124,
    "電話番号":"025-384-0099",
    "テイクアウト":"有り",
    "デリバリー":"有り"
    }
  },
  {
    "type": "Feature",
    "geometry": {
       "type": "Point",
       "coordinates":  [ 139.19133,37.69202 ]
    },
    "properties": {
    "店名":"ごせん桜アロマ工房",
    "ジャンル":"喫茶",
    "区域":"五泉市",
    "住所":"五泉市愛宕2712-1",
    "店コード":125,
    "電話番号":"0250-47-7081",
    "テイクアウト":"有り",
    "デリバリー":"無し"
    }
  },
  {
    "type": "Feature",
    "geometry": {
       "type": "Point",
       "coordinates":  [ 138.243057,37.114895 ]
    },
    "properties": {
    "店名":"旬魚料理と地酒の店大黒屋",
    "ジャンル":"和食",
    "区域":"上越市",
    "住所":"上越市仲町4-5-2高田ターミナルホテル",
    "店コード":126,
    "電話番号":"025-523-5428",
    "テイクアウト":"有り",
    "デリバリー":"無し"
    }
  },
  {
    "type": "Feature",
    "geometry": {
       "type": "Point",
       "coordinates":  [ 139.402985,38.052143 ]
    },
    "properties": {
    "店名":"南都屋",
    "ジャンル":"和食",
    "区域":"胎内市",
    "住所":"胎内市本町4-18",
    "店コード":127,
    "電話番号":"0254-43-2016",
    "テイクアウト":"有り",
    "デリバリー":"有り"
    }
  },
  {
    "type": "Feature",
    "geometry": {
       "type": "Point",
       "coordinates":  [ 139.120193,37.944237 ]
    },
    "properties": {
    "店名":"農園のカフェ厨房TONERIKO",
    "ジャンル":"和食",
    "区域":"西蒲区",
    "住所":"新潟市西蒲区下山1320-1",
    "店コード":128,
    "電話番号":"0256-78-7515",
    "テイクアウト":"有り",
    "デリバリー":"無し"
    }
  },
  {
    "type": "Feature",
    "geometry": {
       "type": "Point",
       "coordinates":  [ 138.850449,37.448189 ]
    },
    "properties": {
    "店名":"あおぎり",
    "ジャンル":"居酒屋",
    "区域":"長岡市",
    "住所":"長岡市東坂之上町2-2-9東坂之上ビル地下1階",
    "店コード":129,
    "電話番号":"0258-89-6674",
    "テイクアウト":"有り",
    "デリバリー":"無し"
    }
  },
  {
    "type": "Feature",
    "geometry": {
       "type": "Point",
       "coordinates":  [ 139.446915,38.247185 ]
    },
    "properties": {
    "店名":"和風レストラン美咲",
    "ジャンル":"和食",
    "区域":"村上市",
    "住所":"村上市岩ケ崎330",
    "店コード":130,
    "電話番号":"0254-52-4295",
    "テイクアウト":"有り",
    "デリバリー":"有り"
    }
  },
  {
    "type": "Feature",
    "geometry": {
       "type": "Point",
       "coordinates":  [ 138.759537,37.133533 ]
    },
    "properties": {
    "店名":"松乃寿司",
    "ジャンル":"寿司",
    "区域":"十日町市",
    "住所":"十日町市加賀糸屋町103-1",
    "店コード":131,
    "電話番号":"025-757-2234",
    "テイクアウト":"有り",
    "デリバリー":"有り"
    }
  },
  {
    "type": "Feature",
    "geometry": {
       "type": "Point",
       "coordinates":  [ 138.337708,37.239315 ]
    },
    "properties": {
    "店名":"潮風薫る宿みはらし",
    "ジャンル":"和食",
    "区域":"上越市",
    "住所":"上越市大潟区九戸浜238-3",
    "店コード":132,
    "電話番号":"025-534-2566",
    "テイクアウト":"有り",
    "デリバリー":"無し"
    }
  },
  {
    "type": "Feature",
    "geometry": {
       "type": "Point",
       "coordinates":  [ 138.334839,38.006554 ]
    },
    "properties": {
    "店名":"つぼ八佐渡佐和田店",
    "ジャンル":"居酒屋",
    "区域":"佐渡市",
    "住所":"佐渡市上矢馳640",
    "店コード":133,
    "電話番号":"0259-51-0800",
    "テイクアウト":"有り",
    "デリバリー":"無し"
    }
  },
  {
    "type": "Feature",
    "geometry": {
       "type": "Point",
       "coordinates":  [ 138.174149,36.869328 ]
    },
    "properties": {
    "店名":"栖里時絵（スリジエ）",
    "ジャンル":"喫茶",
    "区域":"妙高市",
    "住所":"妙高市関川2275-74",
    "店コード":134,
    "電話番号":"0255-86-2431",
    "テイクアウト":"無し",
    "デリバリー":"無し"
    }
  },
  {
    "type": "Feature",
    "geometry": {
       "type": "Point",
       "coordinates":  [ 137.863678,37.039692 ]
    },
    "properties": {
    "店名":"塩の道温泉ホワイトクリフ",
    "ジャンル":"和食",
    "区域":"糸魚川市",
    "住所":"糸魚川市山口151-1ホワイトクリフ",
    "店コード":135,
    "電話番号":"025-558-2316",
    "テイクアウト":"有り",
    "デリバリー":"無し"
    }
  },
  {
    "type": "Feature",
    "geometry": {
       "type": "Point",
       "coordinates":  [ 137.863678,37.039692 ]
    },
    "properties": {
    "店名":"歩荷茶屋",
    "ジャンル":"和食",
    "区域":"糸魚川市",
    "住所":"糸魚川市山口151-1歩荷茶屋",
    "店コード":136,
    "電話番号":"025-558-2388",
    "テイクアウト":"無し",
    "デリバリー":"無し"
    }
  },
  {
    "type": "Feature",
    "geometry": {
       "type": "Point",
       "coordinates":  [ 137.863678,37.039692 ]
    },
    "properties": {
    "店名":"レストランリブラ",
    "ジャンル":"洋食",
    "区域":"糸魚川市",
    "住所":"糸魚川市山口151-1リブラ",
    "店コード":137,
    "電話番号":"025-558-2311",
    "テイクアウト":"無し",
    "デリバリー":"無し"
    }
  },
  {
    "type": "Feature",
    "geometry": {
       "type": "Point",
       "coordinates":  [ 138.811066,36.93293 ]
    },
    "properties": {
    "店名":"越後湯沢温泉さくら亭（本陣さくら亭）",
    "ジャンル":"和食",
    "区域":"湯沢町",
    "住所":"南魚沼郡湯沢町湯沢1926-4",
    "店コード":138,
    "電話番号":"025-775-7830",
    "テイクアウト":"無し",
    "デリバリー":"無し"
    }
  },
  {
    "type": "Feature",
    "geometry": {
       "type": "Point",
       "coordinates":  [ 139.380829,38.018883 ]
    },
    "properties": {
    "店名":"山岳手打そば一寿",
    "ジャンル":"和食",
    "区域":"新発田市",
    "住所":"新発田市下小中山1024-15",
    "店コード":139,
    "電話番号":"0254-33-3480",
    "テイクアウト":"有り",
    "デリバリー":"無し"
    }
  },
  {
    "type": "Feature",
    "geometry": {
       "type": "Point",
       "coordinates":  [ 138.862106,37.450817 ]
    },
    "properties": {
    "店名":"レストランムービー",
    "ジャンル":"洋食",
    "区域":"長岡市",
    "住所":"長岡市今朝白3-17-15",
    "店コード":140,
    "電話番号":"0258-35-5913",
    "テイクアウト":"有り",
    "デリバリー":"無し"
    }
  },
  {
    "type": "Feature",
    "geometry": {
       "type": "Point",
       "coordinates":  [ 139.448471,38.120411 ]
    },
    "properties": {
    "店名":"割烹食堂いそべ",
    "ジャンル":"和食",
    "区域":"村上市",
    "住所":"村上市坂町2505-4",
    "店コード":141,
    "電話番号":"0254-62-2476",
    "テイクアウト":"有り",
    "デリバリー":"有り"
    }
  },
  {
    "type": "Feature",
    "geometry": {
       "type": "Point",
       "coordinates":  [ 138.813599,37.308064 ]
    },
    "properties": {
    "店名":"小千谷そば和田",
    "ジャンル":"和食",
    "区域":"小千谷市",
    "住所":"小千谷市東栄1-2-2",
    "店コード":142,
    "電話番号":"0258-83-3283",
    "テイクアウト":"無し",
    "デリバリー":"無し"
    }
  },
  {
    "type": "Feature",
    "geometry": {
       "type": "Point",
       "coordinates":  [ 138.556503,37.367569 ]
    },
    "properties": {
    "店名":"蒔之鼓",
    "ジャンル":"割烹",
    "区域":"柏崎市",
    "住所":"柏崎市駅前2-4-32",
    "店コード":143,
    "電話番号":"0257-23-0950",
    "テイクアウト":"有り",
    "デリバリー":"有り"
    }
  },
  {
    "type": "Feature",
    "geometry": {
       "type": "Point",
       "coordinates":  [ 139.172745,37.684532 ]
    },
    "properties": {
    "店名":"ふたごや",
    "ジャンル":"居酒屋",
    "区域":"五泉市",
    "住所":"五泉市村松甲1785-4",
    "店コード":144,
    "電話番号":"0250-47-8448",
    "テイクアウト":"有り",
    "デリバリー":"無し"
    }
  },
  {
    "type": "Feature",
    "geometry": {
       "type": "Point",
       "coordinates":  [ 138.887558,37.757423 ]
    },
    "properties": {
    "店名":"CAFEBAR風待",
    "ジャンル":"居酒屋",
    "区域":"西蒲区",
    "住所":"新潟市西蒲区巻甲2530-21",
    "店コード":145,
    "電話番号":"0256-73-3995",
    "テイクアウト":"有り",
    "デリバリー":"無し"
    }
  },
  {
    "type": "Feature",
    "geometry": {
       "type": "Point",
       "coordinates":  [ 138.932831,37.105324 ]
    },
    "properties": {
    "店名":"そば屋長森",
    "ジャンル":"和食",
    "区域":"南魚沼市",
    "住所":"南魚沼市長森415-23",
    "店コード":146,
    "電話番号":"025-775-3887",
    "テイクアウト":"無し",
    "デリバリー":"無し"
    }
  },
  {
    "type": "Feature",
    "geometry": {
       "type": "Point",
       "coordinates":  [ 138.932831,37.105324 ]
    },
    "properties": {
    "店名":"八海山雪室",
    "ジャンル":"喫茶",
    "区域":"南魚沼市",
    "住所":"南魚沼市長森459",
    "店コード":147,
    "電話番号":"025-775-7707",
    "テイクアウト":"無し",
    "デリバリー":"無し"
    }
  },
  {
    "type": "Feature",
    "geometry": {
       "type": "Point",
       "coordinates":  [ 138.229813,37.165989 ]
    },
    "properties": {
    "店名":"お食事処きすや",
    "ジャンル":"和食",
    "区域":"上越市",
    "住所":"上越市大場625-10",
    "店コード":148,
    "電話番号":"025-544-7493",
    "テイクアウト":"無し",
    "デリバリー":"無し"
    }
  },
  {
    "type": "Feature",
    "geometry": {
       "type": "Point",
       "coordinates":  [ 139.064133,37.911831 ]
    },
    "properties": {
    "店名":"海鮮家葱ぼうず",
    "ジャンル":"居酒屋",
    "区域":"中央区",
    "住所":"新潟市中央区笹口1-10-1",
    "店コード":149,
    "電話番号":"025-240-6363",
    "テイクアウト":"有り",
    "デリバリー":"有り"
    }
  },
  {
    "type": "Feature",
    "geometry": {
       "type": "Point",
       "coordinates":  [ 139.04569,37.923764 ]
    },
    "properties": {
    "店名":"海老の髭",
    "ジャンル":"居酒屋",
    "区域":"中央区",
    "住所":"新潟市中央区古町通八番町1433-2",
    "店コード":150,
    "電話番号":"025-210-8507",
    "テイクアウト":"有り",
    "デリバリー":"有り"
    }
  },
  {
    "type": "Feature",
    "geometry": {
       "type": "Point",
       "coordinates":  [ 138.849808,37.447975 ]
    },
    "properties": {
    "店名":"串カツ田中長岡駅前店",
    "ジャンル":"居酒屋",
    "区域":"長岡市",
    "住所":"長岡市大手通2-2-2",
    "店コード":151,
    "電話番号":"0258-89-7978",
    "テイクアウト":"有り",
    "デリバリー":"有り"
    }
  },
  {
    "type": "Feature",
    "geometry": {
       "type": "Point",
       "coordinates":  [ 138.259888,37.034859 ]
    },
    "properties": {
    "店名":"天空",
    "ジャンル":"中華",
    "区域":"妙高市",
    "住所":"妙高市高柳1-14-15",
    "店コード":152,
    "電話番号":"0255-72-9565",
    "テイクアウト":"有り",
    "デリバリー":"有り"
    }
  },
  {
    "type": "Feature",
    "geometry": {
       "type": "Point",
       "coordinates":  [ 139.063995,37.914116 ]
    },
    "properties": {
    "店名":"串カツ田中新潟駅前店",
    "ジャンル":"居酒屋",
    "区域":"中央区",
    "住所":"新潟市中央区花園1-6-1",
    "店コード":153,
    "電話番号":"025-278-7068",
    "テイクアウト":"有り",
    "デリバリー":"有り"
    }
  },
  {
    "type": "Feature",
    "geometry": {
       "type": "Point",
       "coordinates":  [ 138.848114,37.446053 ]
    },
    "properties": {
    "店名":"中国四川料理喜京屋",
    "ジャンル":"中華",
    "区域":"長岡市",
    "住所":"長岡市殿町1-3-9",
    "店コード":154,
    "電話番号":"0258-32-2417",
    "テイクアウト":"有り",
    "デリバリー":"無し"
    }
  },
  {
    "type": "Feature",
    "geometry": {
       "type": "Point",
       "coordinates":  [ 139.052795,37.912025 ]
    },
    "properties": {
    "店名":"RestaurantISO",
    "ジャンル":"フレンチ",
    "区域":"中央区",
    "住所":"新潟市中央区春日町7-13",
    "店コード":155,
    "電話番号":"025-290-7330",
    "テイクアウト":"無し",
    "デリバリー":"無し"
    }
  },
  {
    "type": "Feature",
    "geometry": {
       "type": "Point",
       "coordinates":  [ 139.286819,37.802803 ]
    },
    "properties": {
    "店名":"レストラン結桜",
    "ジャンル":"和食",
    "区域":"阿賀野市",
    "住所":"阿賀野市村杉3946-163うららの森内",
    "店コード":156,
    "電話番号":"0250-61-3511",
    "テイクアウト":"有り",
    "デリバリー":"無し"
    }
  },
  {
    "type": "Feature",
    "geometry": {
       "type": "Point",
       "coordinates":  [ 138.942947,37.648888 ]
    },
    "properties": {
    "店名":"ゴッホ・ボン・クワン",
    "ジャンル":"イタリアン",
    "区域":"三条市",
    "住所":"三条市須頃3-174",
    "店コード":157,
    "電話番号":"0256-64-7038",
    "テイクアウト":"有り",
    "デリバリー":"無し"
    }
  },
  {
    "type": "Feature",
    "geometry": {
       "type": "Point",
       "coordinates":  [ 138.852707,37.445484 ]
    },
    "properties": {
    "店名":"レストランボブ",
    "ジャンル":"和食",
    "区域":"長岡市",
    "住所":"長岡市城内町1-2-9",
    "店コード":158,
    "電話番号":"0258-33-5000",
    "テイクアウト":"無し",
    "デリバリー":"無し"
    }
  },
  {
    "type": "Feature",
    "geometry": {
       "type": "Point",
       "coordinates":  [ 138.853699,37.448868 ]
    },
    "properties": {
    "店名":"レストランローリー",
    "ジャンル":"洋食",
    "区域":"長岡市",
    "住所":"長岡市城内町2-7-10",
    "店コード":159,
    "電話番号":"0258-33-3333",
    "テイクアウト":"無し",
    "デリバリー":"無し"
    }
  },
  {
    "type": "Feature",
    "geometry": {
       "type": "Point",
       "coordinates":  [ 138.554626,37.364132 ]
    },
    "properties": {
    "店名":"レストラン悠凪",
    "ジャンル":"和食",
    "区域":"柏崎市",
    "住所":"柏崎市駅前1-3-8",
    "店コード":160,
    "電話番号":"0257-24-1111",
    "テイクアウト":"無し",
    "デリバリー":"無し"
    }
  },
  {
    "type": "Feature",
    "geometry": {
       "type": "Point",
       "coordinates":  [ 138.821564,37.465897 ]
    },
    "properties": {
    "店名":"尾道らーめん七鐘屋",
    "ジャンル":"ラーメン",
    "区域":"長岡市",
    "住所":"長岡市蓮潟1-14-8",
    "店コード":161,
    "電話番号":"0258-29-7780",
    "テイクアウト":"有り",
    "デリバリー":"無し"
    }
  },
  {
    "type": "Feature",
    "geometry": {
       "type": "Point",
       "coordinates":  [ 139.393021,38.044724 ]
    },
    "properties": {
    "店名":"Y.O.L.O.CALIFORNIASTYLEKITCHEN",
    "ジャンル":"洋食",
    "区域":"胎内市",
    "住所":"胎内市中条3113",
    "店コード":162,
    "電話番号":"0254-28-9656",
    "テイクアウト":"有り",
    "デリバリー":"無し"
    }
  },
  {
    "type": "Feature",
    "geometry": {
       "type": "Point",
       "coordinates":  [ 139.116348,37.931492 ]
    },
    "properties": {
    "店名":"焼肉ざおう新潟東店",
    "ジャンル":"その他",
    "区域":"東区",
    "住所":"新潟市東区新松崎1-107-14",
    "店コード":163,
    "電話番号":"025-384-4670",
    "テイクアウト":"有り",
    "デリバリー":"無し"
    }
  },
  {
    "type": "Feature",
    "geometry": {
       "type": "Point",
       "coordinates":  [ 139.068985,37.706715 ]
    },
    "properties": {
    "店名":"越後乃お宿わか竹",
    "ジャンル":"和食",
    "区域":"田上町",
    "住所":"南蒲原郡田上町田上1370",
    "店コード":164,
    "電話番号":"0256-57-2044",
    "テイクアウト":"有り",
    "デリバリー":"有り"
    }
  },
  {
    "type": "Feature",
    "geometry": {
       "type": "Point",
       "coordinates":  [ 139.1754,37.740807 ]
    },
    "properties": {
    "店名":"割烹そば処にのみや",
    "ジャンル":"和食",
    "区域":"五泉市",
    "住所":"五泉市本町3-2-15",
    "店コード":165,
    "電話番号":"0250-42-2210",
    "テイクアウト":"有り",
    "デリバリー":"有り"
    }
  },
  {
    "type": "Feature",
    "geometry": {
       "type": "Point",
       "coordinates":  [ 139.444565,38.215473 ]
    },
    "properties": {
    "店名":"四川飯店村上",
    "ジャンル":"中華",
    "区域":"村上市",
    "住所":"村上市瀬波温泉2-2-25",
    "店コード":166,
    "電話番号":"0254-52-0311",
    "テイクアウト":"有り",
    "デリバリー":"無し"
    }
  },
  {
    "type": "Feature",
    "geometry": {
       "type": "Point",
       "coordinates":  [ 139.444565,38.215473 ]
    },
    "properties": {
    "店名":"つゆ草（野天風呂湯元龍泉）",
    "ジャンル":"その他",
    "区域":"村上市",
    "住所":"村上市瀬波温泉2-2-25",
    "店コード":167,
    "電話番号":"0254-52-5251",
    "テイクアウト":"無し",
    "デリバリー":"無し"
    }
  },
  {
    "type": "Feature",
    "geometry": {
       "type": "Point",
       "coordinates":  [ 139.453079,38.1189 ]
    },
    "properties": {
    "店名":"どんとうまい",
    "ジャンル":"ファストフード",
    "区域":"村上市",
    "住所":"村上市藤沢91-5荒川ショッピングセンターアコス",
    "店コード":168,
    "電話番号":"0254-62-1422",
    "テイクアウト":"有り",
    "デリバリー":"無し"
    }
  },
  {
    "type": "Feature",
    "geometry": {
       "type": "Point",
       "coordinates":  [ 139.065033,37.911156 ]
    },
    "properties": {
    "店名":"よさこい駅南店",
    "ジャンル":"居酒屋",
    "区域":"中央区",
    "住所":"新潟市中央区笹口1-18-15",
    "店コード":169,
    "電話番号":"025-246-3955",
    "テイクアウト":"有り",
    "デリバリー":"無し"
    }
  },
  {
    "type": "Feature",
    "geometry": {
       "type": "Point",
       "coordinates":  [ 139.06601,37.914478 ]
    },
    "properties": {
    "店名":"大衆酒場天下二",
    "ジャンル":"居酒屋",
    "区域":"中央区",
    "住所":"新潟市中央区花園1-2-2コープシティ花園ガレッソ２階",
    "店コード":170,
    "電話番号":"025-241-0309",
    "テイクアウト":"有り",
    "デリバリー":"無し"
    }
  },
  {
    "type": "Feature",
    "geometry": {
       "type": "Point",
       "coordinates":  [ 139.064377,37.911629 ]
    },
    "properties": {
    "店名":"越乃赤たぬき駅南店",
    "ジャンル":"居酒屋",
    "区域":"中央区",
    "住所":"新潟市中央区笹口1-13-2",
    "店コード":171,
    "電話番号":"025-241-5596",
    "テイクアウト":"有り",
    "デリバリー":"無し"
    }
  },
  {
    "type": "Feature",
    "geometry": {
       "type": "Point",
       "coordinates":  [ 139.058746,37.914051 ]
    },
    "properties": {
    "店名":"越乃赤たぬき弁天店",
    "ジャンル":"居酒屋",
    "区域":"中央区",
    "住所":"新潟市中央区弁天1-4-23",
    "店コード":172,
    "電話番号":"025-244-6988",
    "テイクアウト":"有り",
    "デリバリー":"無し"
    }
  },
  {
    "type": "Feature",
    "geometry": {
       "type": "Point",
       "coordinates":  [ 139.045547,37.92384 ]
    },
    "properties": {
    "店名":"よさ来い古町店",
    "ジャンル":"居酒屋",
    "区域":"中央区",
    "住所":"新潟市中央区古町通8-1430",
    "店コード":173,
    "電話番号":"025-224-6884",
    "テイクアウト":"有り",
    "デリバリー":"無し"
    }
  },
  {
    "type": "Feature",
    "geometry": {
       "type": "Point",
       "coordinates":  [ 139.044418,37.921608 ]
    },
    "properties": {
    "店名":"越乃赤たぬき古町店",
    "ジャンル":"居酒屋",
    "区域":"中央区",
    "住所":"新潟市中央区古町通6-955",
    "店コード":174,
    "電話番号":"025-225-4925",
    "テイクアウト":"有り",
    "デリバリー":"無し"
    }
  },
  {
    "type": "Feature",
    "geometry": {
       "type": "Point",
       "coordinates":  [ 139.037735,37.915577 ]
    },
    "properties": {
    "店名":"大衆酒蔵立呑み天下一",
    "ジャンル":"居酒屋",
    "区域":"中央区",
    "住所":"新潟市中央区花園1-2-2コープシティ花園ガレッソ１階",
    "店コード":175,
    "電話番号":"025-243-4525",
    "テイクアウト":"有り",
    "デリバリー":"無し"
    }
  },
  {
    "type": "Feature",
    "geometry": {
       "type": "Point",
       "coordinates":  [ 139.323593,37.953262 ]
    },
    "properties": {
    "店名":"レストランインダス",
    "ジャンル":"その他",
    "区域":"新発田市",
    "住所":"新発田市大手町3-2-27",
    "店コード":176,
    "電話番号":"0254-26-8539",
    "テイクアウト":"有り",
    "デリバリー":"有り"
    }
  },
  {
    "type": "Feature",
    "geometry": {
       "type": "Point",
       "coordinates":  [ 139.453644,37.683594 ]
    },
    "properties": {
    "店名":"狐の嫁入り屋敷",
    "ジャンル":"和食",
    "区域":"阿賀町",
    "住所":"東蒲原郡阿賀町津川3501-1",
    "店コード":177,
    "電話番号":"0254-92-0220",
    "テイクアウト":"有り",
    "デリバリー":"有り"
    }
  },
  {
    "type": "Feature",
    "geometry": {
       "type": "Point",
       "coordinates":  [ 138.555115,37.367413 ]
    },
    "properties": {
    "店名":"螺旋",
    "ジャンル":"居酒屋",
    "区域":"柏崎市",
    "住所":"柏崎市駅前2-3-21河合ビル",
    "店コード":178,
    "電話番号":"0257-32-4715",
    "テイクアウト":"有り",
    "デリバリー":"無し"
    }
  },
  {
    "type": "Feature",
    "geometry": {
       "type": "Point",
       "coordinates":  [ 138.762009,37.13567 ]
    },
    "properties": {
    "店名":"割烹太古八",
    "ジャンル":"割烹",
    "区域":"十日町市",
    "住所":"十日町市本町五丁目5-217-1",
    "店コード":179,
    "電話番号":"025-752-2858",
    "テイクアウト":"有り",
    "デリバリー":"有り"
    }
  },
  {
    "type": "Feature",
    "geometry": {
       "type": "Point",
       "coordinates":  [ 138.556503,37.367569 ]
    },
    "properties": {
    "店名":"日の出寿司",
    "ジャンル":"寿司",
    "区域":"柏崎市",
    "住所":"柏崎市駅前2-4-27",
    "店コード":180,
    "電話番号":"0257-23-4536",
    "テイクアウト":"有り",
    "デリバリー":"有り"
    }
  },
  {
    "type": "Feature",
    "geometry": {
       "type": "Point",
       "coordinates":  [ 138.891754,37.342411 ]
    },
    "properties": {
    "店名":"山古志のごっつぉ多菜田",
    "ジャンル":"和食",
    "区域":"長岡市",
    "住所":"長岡市山古志虫亀947",
    "店コード":181,
    "電話番号":"0258-41-1144",
    "テイクアウト":"無し",
    "デリバリー":"無し"
    }
  },
  {
    "type": "Feature",
    "geometry": {
       "type": "Point",
       "coordinates":  [ 139.286819,37.802803 ]
    },
    "properties": {
    "店名":"川上屋旅館",
    "ジャンル":"和食",
    "区域":"阿賀野市",
    "住所":"阿賀野市村杉3946-5川上屋旅館",
    "店コード":182,
    "電話番号":"0250-66-2141",
    "テイクアウト":"無し",
    "デリバリー":"無し"
    }
  },
  {
    "type": "Feature",
    "geometry": {
       "type": "Point",
       "coordinates":  [ 139.105942,37.903225 ]
    },
    "properties": {
    "店名":"廻鮮丸寿司石山店",
    "ジャンル":"寿司",
    "区域":"東区",
    "住所":"新潟市東区下場本町3-38",
    "店コード":183,
    "電話番号":"025-277-3115",
    "テイクアウト":"有り",
    "デリバリー":"無し"
    }
  },
  {
    "type": "Feature",
    "geometry": {
       "type": "Point",
       "coordinates":  [ 139.018295,37.906799 ]
    },
    "properties": {
    "店名":"廻鮮丸寿司関屋店",
    "ジャンル":"寿司",
    "区域":"中央区",
    "住所":"新潟市中央区関新3-4-35",
    "店コード":184,
    "電話番号":"025-232-3322",
    "テイクアウト":"有り",
    "デリバリー":"無し"
    }
  },
  {
    "type": "Feature",
    "geometry": {
       "type": "Point",
       "coordinates":  [ 138.998856,37.892033 ]
    },
    "properties": {
    "店名":"廻鮮丸寿司小針店",
    "ジャンル":"寿司",
    "区域":"西区",
    "住所":"新潟市西区小針南62-1",
    "店コード":185,
    "電話番号":"025-232-7495",
    "テイクアウト":"有り",
    "デリバリー":"無し"
    }
  },
  {
    "type": "Feature",
    "geometry": {
       "type": "Point",
       "coordinates":  [ 138.176285,36.863045 ]
    },
    "properties": {
    "店名":"LIMERESORTMYOKO",
    "ジャンル":"洋食",
    "区域":"妙高市",
    "住所":"妙高市関川2251-2",
    "店コード":186,
    "電話番号":"0255-75-5115",
    "テイクアウト":"無し",
    "デリバリー":"無し"
    }
  },
  {
    "type": "Feature",
    "geometry": {
       "type": "Point",
       "coordinates":  [ 138.93428,37.355751 ]
    },
    "properties": {
    "店名":"あまやちの湯",
    "ジャンル":"和食",
    "区域":"長岡市",
    "住所":"長岡市山古志種苧原4526",
    "店コード":187,
    "電話番号":"0258-59-3620",
    "テイクアウト":"無し",
    "デリバリー":"無し"
    }
  },
  {
    "type": "Feature",
    "geometry": {
       "type": "Point",
       "coordinates":  [ 139.433014,38.204887 ]
    },
    "properties": {
    "店名":"岩船港鮮魚センター",
    "ジャンル":"ファストフード",
    "区域":"村上市",
    "住所":"村上市瀬波温泉3-6-38",
    "店コード":188,
    "電話番号":"0254-52-1261",
    "テイクアウト":"有り",
    "デリバリー":"無し"
    }
  },
  {
    "type": "Feature",
    "geometry": {
       "type": "Point",
       "coordinates":  [ 138.993134,37.873569 ]
    },
    "properties": {
    "店名":"ら～めん処がんこ屋",
    "ジャンル":"ラーメン",
    "区域":"西区",
    "住所":"新潟市西区小新西3-15-1",
    "店コード":189,
    "電話番号":"025-233-8888",
    "テイクアウト":"有り",
    "デリバリー":"無し"
    }
  },
  {
    "type": "Feature",
    "geometry": {
       "type": "Point",
       "coordinates":  [ 139.116745,37.954742 ]
    },
    "properties": {
    "店名":"海堂",
    "ジャンル":"喫茶",
    "区域":"東区",
    "住所":"新潟市東区松浜町3710",
    "店コード":190,
    "電話番号":"025-275-2635",
    "テイクアウト":"無し",
    "デリバリー":"無し"
    }
  },
  {
    "type": "Feature",
    "geometry": {
       "type": "Point",
       "coordinates":  [ 139.142853,37.948284 ]
    },
    "properties": {
    "店名":"カジュアルレストランMOKA",
    "ジャンル":"その他",
    "区域":"北区",
    "住所":"新潟市北区松浜本町2-14-18",
    "店コード":191,
    "電話番号":"025-259-7949",
    "テイクアウト":"有り",
    "デリバリー":"有り"
    }
  },
  {
    "type": "Feature",
    "geometry": {
       "type": "Point",
       "coordinates":  [ 138.982422,37.224182 ]
    },
    "properties": {
    "店名":"物産館深雪の里",
    "ジャンル":"その他",
    "区域":"魚沼市",
    "住所":"魚沼市吉田1148",
    "店コード":192,
    "電話番号":"025-792-9300",
    "テイクアウト":"有り",
    "デリバリー":"無し"
    }
  },
  {
    "type": "Feature",
    "geometry": {
       "type": "Point",
       "coordinates":  [ 139.062347,37.914169 ]
    },
    "properties": {
    "店名":"いかの墨新潟駅前店",
    "ジャンル":"居酒屋",
    "区域":"中央区",
    "住所":"新潟市中央区東大通1-5-24",
    "店コード":193,
    "電話番号":"025-242-0510",
    "テイクアウト":"有り",
    "デリバリー":"有り"
    }
  },
  {
    "type": "Feature",
    "geometry": {
       "type": "Point",
       "coordinates":  [ 138.932663,37.652836 ]
    },
    "properties": {
    "店名":"越の宴わらん県央店",
    "ジャンル":"居酒屋",
    "区域":"燕市",
    "住所":"燕市井土巻2-222",
    "店コード":194,
    "電話番号":"0256-64-2935",
    "テイクアウト":"有り",
    "デリバリー":"無し"
    }
  },
  {
    "type": "Feature",
    "geometry": {
       "type": "Point",
       "coordinates":  [ 138.88504,37.695389 ]
    },
    "properties": {
    "店名":"餃子日和わらん越後のわらやき家",
    "ジャンル":"居酒屋",
    "区域":"燕市",
    "住所":"燕市吉田3493-1",
    "店コード":195,
    "電話番号":"0256-78-8470",
    "テイクアウト":"有り",
    "デリバリー":"無し"
    }
  },
  {
    "type": "Feature",
    "geometry": {
       "type": "Point",
       "coordinates":  [ 138.959732,37.634468 ]
    },
    "properties": {
    "店名":"餃子日和わらん三条店",
    "ジャンル":"居酒屋",
    "区域":"三条市",
    "住所":"三条市東裏館2-1-27",
    "店コード":196,
    "電話番号":"0256-35-2034",
    "テイクアウト":"有り",
    "デリバリー":"無し"
    }
  },
  {
    "type": "Feature",
    "geometry": {
       "type": "Point",
       "coordinates":  [ 139.008423,37.887344 ]
    },
    "properties": {
    "店名":"餃子日和わらん新潟西店",
    "ジャンル":"居酒屋",
    "区域":"西区",
    "住所":"新潟市西区小新南2-2-43",
    "店コード":197,
    "電話番号":"025-201-6857",
    "テイクアウト":"有り",
    "デリバリー":"無し"
    }
  },
  {
    "type": "Feature",
    "geometry": {
       "type": "Point",
       "coordinates":  [ 139.047211,37.925476 ]
    },
    "properties": {
    "店名":"割烹大善",
    "ジャンル":"割烹",
    "区域":"中央区",
    "住所":"新潟市中央区東堀前通9-1386",
    "店コード":198,
    "電話番号":"025-228-1916",
    "テイクアウト":"有り",
    "デリバリー":"無し"
    }
  },
  {
    "type": "Feature",
    "geometry": {
       "type": "Point",
       "coordinates":  [ 139.045349,37.92318 ]
    },
    "properties": {
    "店名":"須坂屋そば古町店",
    "ジャンル":"和食",
    "区域":"中央区",
    "住所":"新潟市中央区古町通7-1002-2",
    "店コード":199,
    "電話番号":"025-224-4710",
    "テイクアウト":"有り",
    "デリバリー":"無し"
    }
  },
  {
    "type": "Feature",
    "geometry": {
       "type": "Point",
       "coordinates":  [ 139.058746,37.914051 ]
    },
    "properties": {
    "店名":"須坂屋そば新潟駅前店",
    "ジャンル":"和食",
    "区域":"中央区",
    "住所":"新潟市中央区弁天1-4-29ＩＭＡビル",
    "店コード":200,
    "電話番号":"025-241-7705",
    "テイクアウト":"有り",
    "デリバリー":"無し"
    }
  },
  {
    "type": "Feature",
    "geometry": {
       "type": "Point",
       "coordinates":  [ 139.062866,37.913746 ]
    },
    "properties": {
    "店名":"一軒め酒場新潟駅前店",
    "ジャンル":"居酒屋",
    "区域":"中央区",
    "住所":"新潟市中央区花園1-3-2ＩＭＡビルⅡ",
    "店コード":201,
    "電話番号":"025-250-7530",
    "テイクアウト":"有り",
    "デリバリー":"無し"
    }
  },
  {
    "type": "Feature",
    "geometry": {
       "type": "Point",
       "coordinates":  [ 139.061859,37.915203 ]
    },
    "properties": {
    "店名":"一軒め酒場新潟東大通店",
    "ジャンル":"居酒屋",
    "区域":"中央区",
    "住所":"新潟市中央区東大通1-7-2村信ビル",
    "店コード":202,
    "電話番号":"025-282-7071",
    "テイクアウト":"有り",
    "デリバリー":"無し"
    }
  },
  {
    "type": "Feature",
    "geometry": {
       "type": "Point",
       "coordinates":  [ 138.851562,37.449295 ]
    },
    "properties": {
    "店名":"和ダイニング朔",
    "ジャンル":"居酒屋",
    "区域":"長岡市",
    "住所":"長岡市東坂之上町2-6-1近藤ビル１Ｆ",
    "店コード":203,
    "電話番号":"0258-86-6858",
    "テイクアウト":"有り",
    "デリバリー":"無し"
    }
  },
  {
    "type": "Feature",
    "geometry": {
       "type": "Point",
       "coordinates":  [ 138.856552,37.447884 ]
    },
    "properties": {
    "店名":"迎賓會館紡希",
    "ジャンル":"和食",
    "区域":"長岡市",
    "住所":"長岡市台町2-10-13",
    "店コード":204,
    "電話番号":"0258-39-3190",
    "テイクアウト":"有り",
    "デリバリー":"無し"
    }
  },
  {
    "type": "Feature",
    "geometry": {
       "type": "Point",
       "coordinates":  [ 138.851562,37.449295 ]
    },
    "properties": {
    "店名":"エスタ・ゴストーザ",
    "ジャンル":"その他",
    "区域":"長岡市",
    "住所":"長岡市東坂之上町2-6-1近藤ビル２Ｆ",
    "店コード":205,
    "電話番号":"0258-86-7829",
    "テイクアウト":"有り",
    "デリバリー":"無し"
    }
  },
  {
    "type": "Feature",
    "geometry": {
       "type": "Point",
       "coordinates":  [ 138.258331,37.15036 ]
    },
    "properties": {
    "店名":"きときと寿し上越インター店",
    "ジャンル":"寿司",
    "区域":"上越市",
    "住所":"上越市富岡3484-2",
    "店コード":206,
    "電話番号":"025-527-3734",
    "テイクアウト":"有り",
    "デリバリー":"無し"
    }
  },
  {
    "type": "Feature",
    "geometry": {
       "type": "Point",
       "coordinates":  [ 138.936325,37.647854 ]
    },
    "properties": {
    "店名":"よね蔵燕三条店",
    "ジャンル":"居酒屋",
    "区域":"三条市",
    "住所":"三条市須頃1-41",
    "店コード":207,
    "電話番号":"0256-36-6240",
    "テイクアウト":"有り",
    "デリバリー":"有り"
    }
  },
  {
    "type": "Feature",
    "geometry": {
       "type": "Point",
       "coordinates":  [ 139.116745,37.954742 ]
    },
    "properties": {
    "店名":"新々軒",
    "ジャンル":"ラーメン",
    "区域":"東区",
    "住所":"新潟市東区松浜町3710新潟空港",
    "店コード":208,
    "電話番号":"025-275-3451",
    "テイクアウト":"無し",
    "デリバリー":"無し"
    }
  },
  {
    "type": "Feature",
    "geometry": {
       "type": "Point",
       "coordinates":  [ 138.97139,37.631039 ]
    },
    "properties": {
    "店名":"有限会社とんかつ三条",
    "ジャンル":"和食",
    "区域":"三条市",
    "住所":"三条市東三条1-3-27",
    "店コード":209,
    "電話番号":"0256-35-2043",
    "テイクアウト":"有り",
    "デリバリー":"有り"
    }
  },
  {
    "type": "Feature",
    "geometry": {
       "type": "Point",
       "coordinates":  [ 139.063995,37.914116 ]
    },
    "properties": {
    "店名":"LaFattoria",
    "ジャンル":"イタリアン",
    "区域":"中央区",
    "住所":"新潟市中央区花園1-6-29ワタシンビル２Ｆ",
    "店コード":210,
    "電話番号":"025-250-7883",
    "テイクアウト":"有り",
    "デリバリー":"無し"
    }
  },
  {
    "type": "Feature",
    "geometry": {
       "type": "Point",
       "coordinates":  [ 138.353012,38.016541 ]
    },
    "properties": {
    "店名":"クレアーレ",
    "ジャンル":"喫茶",
    "区域":"佐渡市",
    "住所":"佐渡市中興甲1106-1",
    "店コード":211,
    "電話番号":"0259-63-2276",
    "テイクアウト":"有り",
    "デリバリー":"無し"
    }
  },
  {
    "type": "Feature",
    "geometry": {
       "type": "Point",
       "coordinates":  [ 138.8517,37.445629 ]
    },
    "properties": {
    "店名":"あるふぁ・がーでん",
    "ジャンル":"その他",
    "区域":"長岡市",
    "住所":"長岡市城内町1-1-11",
    "店コード":212,
    "電話番号":"0258-36-6696",
    "テイクアウト":"有り",
    "デリバリー":"無し"
    }
  },
  {
    "type": "Feature",
    "geometry": {
       "type": "Point",
       "coordinates":  [ 139.059402,37.91317 ]
    },
    "properties": {
    "店名":"レストランエルドラド（ホテルグローバルビュー新潟）",
    "ジャンル":"洋食",
    "区域":"中央区",
    "住所":"新潟市中央区弁天1-2-4",
    "店コード":213,
    "電話番号":"025-244-5151",
    "テイクアウト":"有り",
    "デリバリー":"無し"
    }
  },
  {
    "type": "Feature",
    "geometry": {
       "type": "Point",
       "coordinates":  [ 139.093262,37.923977 ]
    },
    "properties": {
    "店名":"居酒屋下町食堂",
    "ジャンル":"居酒屋",
    "区域":"東区",
    "住所":"新潟市東区牡丹山3-1-1ソロモンビル１Ｆ",
    "店コード":214,
    "電話番号":"025-385-6378",
    "テイクアウト":"有り",
    "デリバリー":"有り"
    }
  },
  {
    "type": "Feature",
    "geometry": {
       "type": "Point",
       "coordinates":  [ 139.045715,37.924438 ]
    },
    "properties": {
    "店名":"五郎古町店",
    "ジャンル":"居酒屋",
    "区域":"中央区",
    "住所":"新潟市中央区古町通8-1446一蔵ビル１Ｆ",
    "店コード":215,
    "電話番号":"025-229-5379",
    "テイクアウト":"無し",
    "デリバリー":"無し"
    }
  },
  {
    "type": "Feature",
    "geometry": {
       "type": "Point",
       "coordinates":  [ 138.0336,37.112457 ]
    },
    "properties": {
    "店名":"シーサイド磯貝",
    "ジャンル":"和食",
    "区域":"糸魚川市",
    "住所":"糸魚川市藤崎35-1",
    "店コード":216,
    "電話番号":"025-567-2010",
    "テイクアウト":"有り",
    "デリバリー":"有り"
    }
  },
  {
    "type": "Feature",
    "geometry": {
       "type": "Point",
       "coordinates":  [ 138.004303,37.114178 ]
    },
    "properties": {
    "店名":"磯貝鮮魚店",
    "ジャンル":"ファストフード",
    "区域":"糸魚川市",
    "住所":"糸魚川市能生小泊3596-2マリンドーム能生",
    "店コード":217,
    "電話番号":"025-566-4953",
    "テイクアウト":"有り",
    "デリバリー":"有り"
    }
  },
  {
    "type": "Feature",
    "geometry": {
       "type": "Point",
       "coordinates":  [ 138.315964,38.004074 ]
    },
    "properties": {
    "店名":"トマト＆オニオン佐渡店",
    "ジャンル":"洋食",
    "区域":"佐渡市",
    "住所":"佐渡市中原581-1",
    "店コード":218,
    "電話番号":"0259-67-7322",
    "テイクアウト":"有り",
    "デリバリー":"無し"
    }
  },
  {
    "type": "Feature",
    "geometry": {
       "type": "Point",
       "coordinates":  [ 138.965897,37.215336 ]
    },
    "properties": {
    "店名":"オールスターキャスト",
    "ジャンル":"洋食",
    "区域":"魚沼市",
    "住所":"魚沼市中原483-12",
    "店コード":219,
    "電話番号":"025-793-2818",
    "テイクアウト":"有り",
    "デリバリー":"無し"
    }
  },
  {
    "type": "Feature",
    "geometry": {
       "type": "Point",
       "coordinates":  [ 139.059158,37.908623 ]
    },
    "properties": {
    "店名":"新潟風物詩ももふく",
    "ジャンル":"和食",
    "区域":"中央区",
    "住所":"新潟市中央区米山2-3-4",
    "店コード":220,
    "電話番号":"025-245-0029",
    "テイクアウト":"無し",
    "デリバリー":"無し"
    }
  },
  {
    "type": "Feature",
    "geometry": {
       "type": "Point",
       "coordinates":  [ 138.781418,37.394066 ]
    },
    "properties": {
    "店名":"スラブ焼すみよし",
    "ジャンル":"その他",
    "区域":"長岡市",
    "住所":"長岡市来迎寺3605",
    "店コード":221,
    "電話番号":"0258-92-2248",
    "テイクアウト":"有り",
    "デリバリー":"無し"
    }
  },
  {
    "type": "Feature",
    "geometry": {
       "type": "Point",
       "coordinates":  [ 138.892868,37.546211 ]
    },
    "properties": {
    "店名":"大阪屋今町店レストラン",
    "ジャンル":"洋食",
    "区域":"見附市",
    "住所":"見附市今町4-14-58大阪屋今町店",
    "店コード":222,
    "電話番号":"0258-66-4617",
    "テイクアウト":"有り",
    "デリバリー":"無し"
    }
  },
  {
    "type": "Feature",
    "geometry": {
       "type": "Point",
       "coordinates":  [ 139.049179,37.921547 ]
    },
    "properties": {
    "店名":"ビストロ椿",
    "ジャンル":"洋食",
    "区域":"中央区",
    "住所":"新潟市中央区花町1981-1",
    "店コード":223,
    "電話番号":"025-226-7007",
    "テイクアウト":"有り",
    "デリバリー":"有り"
    }
  },
  {
    "type": "Feature",
    "geometry": {
       "type": "Point",
       "coordinates":  [ 139.037069,37.666866 ]
    },
    "properties": {
    "店名":"よね蔵加茂店",
    "ジャンル":"居酒屋",
    "区域":"加茂市",
    "住所":"加茂市大字加茂2606-1",
    "店コード":224,
    "電話番号":"0256-57-1251",
    "テイクアウト":"有り",
    "デリバリー":"有り"
    }
  },
  {
    "type": "Feature",
    "geometry": {
       "type": "Point",
       "coordinates":  [ 138.918015,37.531811 ]
    },
    "properties": {
    "店名":"お食事処ニュー小や松",
    "ジャンル":"和食",
    "区域":"見附市",
    "住所":"見附市学校町1-11-57",
    "店コード":225,
    "電話番号":"0258-63-2345",
    "テイクアウト":"有り",
    "デリバリー":"有り"
    }
  },
  {
    "type": "Feature",
    "geometry": {
       "type": "Point",
       "coordinates":  [ 138.349594,37.955612 ]
    },
    "properties": {
    "店名":"佐渡歴史伝説館",
    "ジャンル":"和食",
    "区域":"佐渡市",
    "住所":"佐渡市真野655",
    "店コード":226,
    "電話番号":"0259-55-2525",
    "テイクアウト":"無し",
    "デリバリー":"無し"
    }
  },
  {
    "type": "Feature",
    "geometry": {
       "type": "Point",
       "coordinates":  [ 138.579147,37.396961 ]
    },
    "properties": {
    "店名":"お食事呑み処久治",
    "ジャンル":"和食",
    "区域":"柏崎市",
    "住所":"柏崎市松波1-4-53",
    "店コード":227,
    "電話番号":"0257-23-9981",
    "テイクアウト":"有り",
    "デリバリー":"有り"
    }
  },
  {
    "type": "Feature",
    "geometry": {
       "type": "Point",
       "coordinates":  [ 139.29509,37.955009 ]
    },
    "properties": {
    "店名":"ステーキのさるーん新発田店",
    "ジャンル":"洋食",
    "区域":"新発田市",
    "住所":"新発田市新栄町2-4-13",
    "店コード":228,
    "電話番号":"0254-26-2026",
    "テイクアウト":"有り",
    "デリバリー":"無し"
    }
  },
  {
    "type": "Feature",
    "geometry": {
       "type": "Point",
       "coordinates":  [ 138.866409,37.463055 ]
    },
    "properties": {
    "店名":"ステーキのさるーん長岡店",
    "ジャンル":"洋食",
    "区域":"長岡市",
    "住所":"長岡市新保1-1821-1",
    "店コード":229,
    "電話番号":"0258-37-3977",
    "テイクアウト":"有り",
    "デリバリー":"無し"
    }
  },
  {
    "type": "Feature",
    "geometry": {
       "type": "Point",
       "coordinates":  [ 138.958008,37.636059 ]
    },
    "properties": {
    "店名":"ステーキのさるーん三条店",
    "ジャンル":"洋食",
    "区域":"三条市",
    "住所":"三条市東裏館2-1310-1",
    "店コード":230,
    "電話番号":"0256-35-5926",
    "テイクアウト":"有り",
    "デリバリー":"無し"
    }
  },
  {
    "type": "Feature",
    "geometry": {
       "type": "Point",
       "coordinates":  [ 139.1008,37.815948 ]
    },
    "properties": {
    "店名":"ステーキのさるーん新津店",
    "ジャンル":"洋食",
    "区域":"秋葉区",
    "住所":"新潟市秋葉区北上2040",
    "店コード":231,
    "電話番号":"0250-24-7575",
    "テイクアウト":"有り",
    "デリバリー":"無し"
    }
  },
  {
    "type": "Feature",
    "geometry": {
       "type": "Point",
       "coordinates":  [ 139.055161,37.897167 ]
    },
    "properties": {
    "店名":"ステーキのさるーん桜木店",
    "ジャンル":"洋食",
    "区域":"中央区",
    "住所":"新潟市中央区神道寺2-5-7",
    "店コード":232,
    "電話番号":"025-248-1729",
    "テイクアウト":"有り",
    "デリバリー":"無し"
    }
  },
  {
    "type": "Feature",
    "geometry": {
       "type": "Point",
       "coordinates":  [ 139.096893,37.872391 ]
    },
    "properties": {
    "店名":"石焼ステーキ贅亀田店",
    "ジャンル":"洋食",
    "区域":"江南区",
    "住所":"新潟市江南区亀田四ツ興野1-568-2",
    "店コード":233,
    "電話番号":"025-383-5855",
    "テイクアウト":"有り",
    "デリバリー":"無し"
    }
  },
  {
    "type": "Feature",
    "geometry": {
       "type": "Point",
       "coordinates":  [ 139.113892,37.93446 ]
    },
    "properties": {
    "店名":"石焼ステーキ贅松崎店",
    "ジャンル":"洋食",
    "区域":"東区",
    "住所":"新潟市東区松崎1-19-26",
    "店コード":234,
    "電話番号":"025-272-2220",
    "テイクアウト":"有り",
    "デリバリー":"無し"
    }
  },
  {
    "type": "Feature",
    "geometry": {
       "type": "Point",
       "coordinates":  [ 138.996124,37.870148 ]
    },
    "properties": {
    "店名":"石焼ステーキ贅小新店",
    "ジャンル":"洋食",
    "区域":"西区",
    "住所":"新潟市西区小新大通り2-2-5",
    "店コード":235,
    "電話番号":"025-201-1070",
    "テイクアウト":"有り",
    "デリバリー":"無し"
    }
  },
  {
    "type": "Feature",
    "geometry": {
       "type": "Point",
       "coordinates":  [ 138.865906,37.444279 ]
    },
    "properties": {
    "店名":"石焼ステーキ贅長岡アクロスプラザ店",
    "ジャンル":"洋食",
    "区域":"長岡市",
    "住所":"長岡市沖田1-41アクロスプラザ長岡店",
    "店コード":236,
    "電話番号":"0258-31-2066",
    "テイクアウト":"有り",
    "デリバリー":"無し"
    }
  },
  {
    "type": "Feature",
    "geometry": {
       "type": "Point",
       "coordinates":  [ 138.824402,37.456711 ]
    },
    "properties": {
    "店名":"石焼ステーキ贅長岡古正寺店",
    "ジャンル":"洋食",
    "区域":"長岡市",
    "住所":"長岡市古正寺2-2",
    "店コード":237,
    "電話番号":"0258-86-1129",
    "テイクアウト":"有り",
    "デリバリー":"無し"
    }
  },
  {
    "type": "Feature",
    "geometry": {
       "type": "Point",
       "coordinates":  [ 138.951431,37.660755 ]
    },
    "properties": {
    "店名":"石焼ステーキ贅県央店",
    "ジャンル":"洋食",
    "区域":"燕市",
    "住所":"燕市佐渡5202",
    "店コード":238,
    "電話番号":"0256-61-2929",
    "テイクアウト":"有り",
    "デリバリー":"無し"
    }
  },
  {
    "type": "Feature",
    "geometry": {
       "type": "Point",
       "coordinates":  [ 138.771698,37.454666 ]
    },
    "properties": {
    "店名":"魚久",
    "ジャンル":"割烹",
    "区域":"長岡市",
    "住所":"長岡市関原町3-甲124",
    "店コード":239,
    "電話番号":"0258-46-2014",
    "テイクアウト":"有り",
    "デリバリー":"有り"
    }
  },
  {
    "type": "Feature",
    "geometry": {
       "type": "Point",
       "coordinates":  [ 138.853973,37.041405 ]
    },
    "properties": {
    "店名":"魚沼さんちのおすそわけ",
    "ジャンル":"和食",
    "区域":"南魚沼市",
    "住所":"南魚沼市塩沢229-1お米の楽校内",
    "店コード":240,
    "電話番号":"025-782-1699",
    "テイクアウト":"有り",
    "デリバリー":"無し"
    }
  },
  {
    "type": "Feature",
    "geometry": {
       "type": "Point",
       "coordinates":  [ 139.037735,37.915577 ]
    },
    "properties": {
    "店名":"焼肉ライク新潟駅前店",
    "ジャンル":"その他",
    "区域":"中央区",
    "住所":"新潟市中央区東大通1-7-7ＩＭＡⅢ－１Ｆ",
    "店コード":241,
    "電話番号":"025-243-8929",
    "テイクアウト":"有り",
    "デリバリー":"有り"
    }
  },
  {
    "type": "Feature",
    "geometry": {
       "type": "Point",
       "coordinates":  [ 139.058868,37.916069 ]
    },
    "properties": {
    "店名":"日本料理花のめ",
    "ジャンル":"和食",
    "区域":"中央区",
    "住所":"新潟市中央区東大通1-2-12ホクユウビル３Ｆ",
    "店コード":242,
    "電話番号":"025-241-1703",
    "テイクアウト":"無し",
    "デリバリー":"無し"
    }
  },
  {
    "type": "Feature",
    "geometry": {
       "type": "Point",
       "coordinates":  [ 139.042938,37.920879 ]
    },
    "properties": {
    "店名":"カフェダイニングラ・ジット",
    "ジャンル":"洋食",
    "区域":"中央区",
    "住所":"新潟市中央区西堀通5-833-3",
    "店コード":243,
    "電話番号":"025-211-8812",
    "テイクアウト":"有り",
    "デリバリー":"無し"
    }
  },
  {
    "type": "Feature",
    "geometry": {
       "type": "Point",
       "coordinates":  [ 139.059509,37.914982 ]
    },
    "properties": {
    "店名":"鮨花いち１階",
    "ジャンル":"寿司",
    "区域":"中央区",
    "住所":"新潟市中央区東大通1-2-12ホクユウビル１Ｆ",
    "店コード":244,
    "電話番号":"025-241-1701",
    "テイクアウト":"有り",
    "デリバリー":"無し"
    }
  },
  {
    "type": "Feature",
    "geometry": {
       "type": "Point",
       "coordinates":  [ 139.045135,37.924313 ]
    },
    "properties": {
    "店名":"鉄板備長炭火焼ジョー",
    "ジャンル":"居酒屋",
    "区域":"中央区",
    "住所":"新潟市中央区古町通8-1504江部ビル１Ｆ",
    "店コード":245,
    "電話番号":"025-222-2567",
    "テイクアウト":"有り",
    "デリバリー":"有り"
    }
  },
  {
    "type": "Feature",
    "geometry": {
       "type": "Point",
       "coordinates":  [ 138.161942,36.901352 ]
    },
    "properties": {
    "店名":"かのうや",
    "ジャンル":"イタリアン",
    "区域":"妙高市",
    "住所":"妙高市関山6087-5",
    "店コード":246,
    "電話番号":"0255-82-2327",
    "テイクアウト":"無し",
    "デリバリー":"無し"
    }
  },
  {
    "type": "Feature",
    "geometry": {
       "type": "Point",
       "coordinates":  [ 139.040451,37.916576 ]
    },
    "properties": {
    "店名":"オーベルジュ古町",
    "ジャンル":"フレンチ",
    "区域":"中央区",
    "住所":"新潟市中央区古町通二番町669-2ダイアパレス古町１Ｆ",
    "店コード":247,
    "電話番号":"025-228-5242",
    "テイクアウト":"有り",
    "デリバリー":"無し"
    }
  },
  {
    "type": "Feature",
    "geometry": {
       "type": "Point",
       "coordinates":  [ 139.059219,37.915527 ]
    },
    "properties": {
    "店名":"鮨花いち２階",
    "ジャンル":"寿司",
    "区域":"中央区",
    "住所":"新潟市中央区東大通1-2-12ホクユウビル２Ｆ",
    "店コード":248,
    "電話番号":"025-241-1702",
    "テイクアウト":"有り",
    "デリバリー":"無し"
    }
  },
  {
    "type": "Feature",
    "geometry": {
       "type": "Point",
       "coordinates":  [ 138.914124,37.311035 ]
    },
    "properties": {
    "店名":"郷見庵",
    "ジャンル":"和食",
    "区域":"長岡市",
    "住所":"長岡市山古志東竹沢丙1179-17",
    "店コード":249,
    "電話番号":"090-8775-1169",
    "テイクアウト":"有り",
    "デリバリー":"無し"
    }
  },
  {
    "type": "Feature",
    "geometry": {
       "type": "Point",
       "coordinates":  [ 139.046249,37.924114 ]
    },
    "properties": {
    "店名":"権十楼古町店",
    "ジャンル":"居酒屋",
    "区域":"中央区",
    "住所":"新潟市中央区東堀通八番町1429ホテルクラウンヒルズ新潟２階",
    "店コード":250,
    "電話番号":"025-378-4531",
    "テイクアウト":"有り",
    "デリバリー":"無し"
    }
  },
  {
    "type": "Feature",
    "geometry": {
       "type": "Point",
       "coordinates":  [ 139.019745,37.78793 ]
    },
    "properties": {
    "店名":"瑞雪楼",
    "ジャンル":"和食",
    "区域":"南区",
    "住所":"新潟市南区保坂293-1",
    "店コード":251,
    "電話番号":"025-372-0800",
    "テイクアウト":"有り",
    "デリバリー":"有り"
    }
  },
  {
    "type": "Feature",
    "geometry": {
       "type": "Point",
       "coordinates":  [ 138.857635,37.47142 ]
    },
    "properties": {
    "店名":"レストランキャロット",
    "ジャンル":"洋食",
    "区域":"長岡市",
    "住所":"長岡市東蔵王2-4-2",
    "店コード":252,
    "電話番号":"0258-24-7963",
    "テイクアウト":"有り",
    "デリバリー":"無し"
    }
  },
  {
    "type": "Feature",
    "geometry": {
       "type": "Point",
       "coordinates":  [ 139.327942,37.947212 ]
    },
    "properties": {
    "店名":"レストランモントルー",
    "ジャンル":"フレンチ",
    "区域":"新発田市",
    "住所":"新発田市中央町2-4-15",
    "店コード":253,
    "電話番号":"0254-26-1526",
    "テイクアウト":"有り",
    "デリバリー":"無し"
    }
  },
  {
    "type": "Feature",
    "geometry": {
       "type": "Point",
       "coordinates":  [ 139.154175,37.852493 ]
    },
    "properties": {
    "店名":"日本料理本徳",
    "ジャンル":"和食",
    "区域":"江南区",
    "住所":"新潟市江南区横越中央4-7-10",
    "店コード":254,
    "電話番号":"025-385-2019",
    "テイクアウト":"有り",
    "デリバリー":"有り"
    }
  },
  {
    "type": "Feature",
    "geometry": {
       "type": "Point",
       "coordinates":  [ 139.058472,37.912296 ]
    },
    "properties": {
    "店名":"ほっこり居酒屋瓢膳",
    "ジャンル":"居酒屋",
    "区域":"中央区",
    "住所":"新潟市中央区弁天2-3-35コートホテル１階",
    "店コード":255,
    "電話番号":"025-248-6543",
    "テイクアウト":"有り",
    "デリバリー":"無し"
    }
  },
  {
    "type": "Feature",
    "geometry": {
       "type": "Point",
       "coordinates":  [ 139.058868,37.916069 ]
    },
    "properties": {
    "店名":"五郎万代店",
    "ジャンル":"居酒屋",
    "区域":"中央区",
    "住所":"新潟市中央区東大通2-3-152F",
    "店コード":256,
    "電話番号":"025-241-5601",
    "テイクアウト":"無し",
    "デリバリー":"無し"
    }
  },
  {
    "type": "Feature",
    "geometry": {
       "type": "Point",
       "coordinates":  [ 138.94342,37.865368 ]
    },
    "properties": {
    "店名":"権倉",
    "ジャンル":"居酒屋",
    "区域":"西区",
    "住所":"新潟市西区大学南2-7-47",
    "店コード":257,
    "電話番号":"025-239-5005",
    "テイクアウト":"有り",
    "デリバリー":"無し"
    }
  },
  {
    "type": "Feature",
    "geometry": {
       "type": "Point",
       "coordinates":  [ 138.848328,37.438843 ]
    },
    "properties": {
    "店名":"ゲストハウス英國屋",
    "ジャンル":"フレンチ",
    "区域":"長岡市",
    "住所":"長岡市千歳3-2-41",
    "店コード":258,
    "電話番号":"0258-36-8420",
    "テイクアウト":"有り",
    "デリバリー":"無し"
    }
  },
  {
    "type": "Feature",
    "geometry": {
       "type": "Point",
       "coordinates":  [ 139.036697,37.927288 ]
    },
    "properties": {
    "店名":"かくれや空間夜座和",
    "ジャンル":"和食",
    "区域":"中央区",
    "住所":"新潟市中央区出来島2-14-16アルゴ天神山1階C",
    "店コード":259,
    "電話番号":"025-281-0830",
    "テイクアウト":"有り",
    "デリバリー":"無し"
    }
  },
  {
    "type": "Feature",
    "geometry": {
       "type": "Point",
       "coordinates":  [ 139.003571,37.894318 ]
    },
    "properties": {
    "店名":"ラグナグ青山店",
    "ジャンル":"イタリアン",
    "区域":"西区",
    "住所":"新潟市西区東青山1-6-3",
    "店コード":260,
    "電話番号":"025-265-7777",
    "テイクアウト":"有り",
    "デリバリー":"無し"
    }
  },
  {
    "type": "Feature",
    "geometry": {
       "type": "Point",
       "coordinates":  [ 138.864365,37.270325 ]
    },
    "properties": {
    "店名":"日乃出",
    "ジャンル":"割烹",
    "区域":"長岡市",
    "住所":"長岡市東川口371-20",
    "店コード":261,
    "電話番号":"0258-89-2054",
    "テイクアウト":"有り",
    "デリバリー":"有り"
    }
  },
  {
    "type": "Feature",
    "geometry": {
       "type": "Point",
       "coordinates":  [ 138.856461,37.254723 ]
    },
    "properties": {
    "店名":"五十嵐食堂",
    "ジャンル":"和食",
    "区域":"長岡市",
    "住所":"長岡市西川口516-1",
    "店コード":262,
    "電話番号":"0258-89-3610",
    "テイクアウト":"有り",
    "デリバリー":"有り"
    }
  },
  {
    "type": "Feature",
    "geometry": {
       "type": "Point",
       "coordinates":  [ 139.215515,37.918266 ]
    },
    "properties": {
    "店名":"旬彩末留田",
    "ジャンル":"和食",
    "区域":"北区",
    "住所":"新潟市北区白新町2-11-17",
    "店コード":263,
    "電話番号":"025-386-7550",
    "テイクアウト":"有り",
    "デリバリー":"無し"
    }
  },
  {
    "type": "Feature",
    "geometry": {
       "type": "Point",
       "coordinates":  [ 138.912369,37.667549 ]
    },
    "properties": {
    "店名":"RORNO",
    "ジャンル":"イタリアン",
    "区域":"燕市",
    "住所":"燕市東太田1222",
    "店コード":264,
    "電話番号":"0256-64-7455",
    "テイクアウト":"有り",
    "デリバリー":"無し"
    }
  },
  {
    "type": "Feature",
    "geometry": {
       "type": "Point",
       "coordinates":  [ 138.851227,37.448521 ]
    },
    "properties": {
    "店名":"あみ鶏長岡店",
    "ジャンル":"居酒屋",
    "区域":"長岡市",
    "住所":"長岡市東坂之上町2-2-9東坂之上ビル3Ｆ",
    "店コード":265,
    "電話番号":"0258-89-6066",
    "テイクアウト":"無し",
    "デリバリー":"無し"
    }
  },
  {
    "type": "Feature",
    "geometry": {
       "type": "Point",
       "coordinates":  [ 138.857483,37.463284 ]
    },
    "properties": {
    "店名":"料理・仕出し杉乃栄",
    "ジャンル":"和食",
    "区域":"長岡市",
    "住所":"長岡市新町2-4-16",
    "店コード":266,
    "電話番号":"0258-32-2824",
    "テイクアウト":"有り",
    "デリバリー":"有り"
    }
  },
  {
    "type": "Feature",
    "geometry": {
       "type": "Point",
       "coordinates":  [ 138.84581,37.803284 ]
    },
    "properties": {
    "店名":"コテアコテカフェ",
    "ジャンル":"軽食",
    "区域":"西蒲区",
    "住所":"新潟市西蒲区角田浜1661",
    "店コード":267,
    "電話番号":"0256-77-8637",
    "テイクアウト":"無し",
    "デリバリー":"無し"
    }
  },
  {
    "type": "Feature",
    "geometry": {
       "type": "Point",
       "coordinates":  [ 138.84581,37.803284 ]
    },
    "properties": {
    "店名":"カーブドッチヴィネスパ",
    "ジャンル":"和食",
    "区域":"西蒲区",
    "住所":"新潟市西蒲区角田浜1661",
    "店コード":268,
    "電話番号":"0256-77-2226",
    "テイクアウト":"無し",
    "デリバリー":"無し"
    }
  },
  {
    "type": "Feature",
    "geometry": {
       "type": "Point",
       "coordinates":  [ 139.256805,37.764442 ]
    },
    "properties": {
    "店名":"サントピアワールド（レストラン）",
    "ジャンル":"その他",
    "区域":"阿賀野市",
    "住所":"阿賀野市久保1-1",
    "店コード":269,
    "電話番号":"0250-68-3450",
    "テイクアウト":"有り",
    "デリバリー":"無し"
    }
  },
  {
    "type": "Feature",
    "geometry": {
       "type": "Point",
       "coordinates":  [ 138.706406,37.553406 ]
    },
    "properties": {
    "店名":"DIO",
    "ジャンル":"軽食",
    "区域":"出雲崎町",
    "住所":"三島郡出雲崎町井鼻500DIO",
    "店コード":270,
    "電話番号":"080-6708-8864",
    "テイクアウト":"有り",
    "デリバリー":"有り"
    }
  },
  {
    "type": "Feature",
    "geometry": {
       "type": "Point",
       "coordinates":  [ 138.303452,37.210667 ]
    },
    "properties": {
    "店名":"かねたまいち平原商店",
    "ジャンル":"割烹",
    "区域":"上越市",
    "住所":"上越市大潟区犀潟602-31",
    "店コード":271,
    "電話番号":"025-534-2303",
    "テイクアウト":"有り",
    "デリバリー":"有り"
    }
  },
  {
    "type": "Feature",
    "geometry": {
       "type": "Point",
       "coordinates":  [ 137.988312,37.097187 ]
    },
    "properties": {
    "店名":"汐路駅前店",
    "ジャンル":"その他",
    "区域":"糸魚川市",
    "住所":"糸魚川市大字能生2482-4",
    "店コード":272,
    "電話番号":"025-566-3025",
    "テイクアウト":"有り",
    "デリバリー":"有り"
    }
  },
  {
    "type": "Feature",
    "geometry": {
       "type": "Point",
       "coordinates":  [ 138.004303,37.114178 ]
    },
    "properties": {
    "店名":"リーフキッチン",
    "ジャンル":"その他",
    "区域":"糸魚川市",
    "住所":"糸魚川市大字能生小泊3596-2マリンドーム1F",
    "店コード":273,
    "電話番号":"025-566-3433",
    "テイクアウト":"有り",
    "デリバリー":"無し"
    }
  },
  {
    "type": "Feature",
    "geometry": {
       "type": "Point",
       "coordinates":  [ 138.004303,37.114178 ]
    },
    "properties": {
    "店名":"味千汐路番屋",
    "ジャンル":"和食",
    "区域":"糸魚川市",
    "住所":"糸魚川市大字能生小泊3596-2マリンドーム内2F",
    "店コード":274,
    "電話番号":"025-566-3423",
    "テイクアウト":"有り",
    "デリバリー":"無し"
    }
  },
  {
    "type": "Feature",
    "geometry": {
       "type": "Point",
       "coordinates":  [ 139.230408,37.844181 ]
    },
    "properties": {
    "店名":"ホルモン村",
    "ジャンル":"居酒屋",
    "区域":"阿賀野市",
    "住所":"阿賀野市北本町23-20",
    "店コード":275,
    "電話番号":"0250-47-4949",
    "テイクアウト":"無し",
    "デリバリー":"無し"
    }
  },
  {
    "type": "Feature",
    "geometry": {
       "type": "Point",
       "coordinates":  [ 138.546326,37.369858 ]
    },
    "properties": {
    "店名":"ぺっとかふぇスカイ",
    "ジャンル":"喫茶",
    "区域":"柏崎市",
    "住所":"柏崎市西港町11-18ぺっとかふぇスカイ",
    "店コード":276,
    "電話番号":"0257-41-5375",
    "テイクアウト":"無し",
    "デリバリー":"無し"
    }
  },
  {
    "type": "Feature",
    "geometry": {
       "type": "Point",
       "coordinates":  [ 138.570251,37.367184 ]
    },
    "properties": {
    "店名":"柏崎扇町食堂",
    "ジャンル":"和食",
    "区域":"柏崎市",
    "住所":"柏崎市扇町3-19",
    "店コード":277,
    "電話番号":"0257-20-7511",
    "テイクアウト":"有り",
    "デリバリー":"無し"
    }
  },
  {
    "type": "Feature",
    "geometry": {
       "type": "Point",
       "coordinates":  [ 138.956558,37.629101 ]
    },
    "properties": {
    "店名":"有限会社魚長",
    "ジャンル":"和食",
    "区域":"三条市",
    "住所":"三条市本町2-8-1",
    "店コード":278,
    "電話番号":"0256-32-4051",
    "テイクアウト":"有り",
    "デリバリー":"有り"
    }
  },
  {
    "type": "Feature",
    "geometry": {
       "type": "Point",
       "coordinates":  [ 138.945724,37.752708 ]
    },
    "properties": {
    "店名":"サンセリテ川多津",
    "ジャンル":"割烹",
    "区域":"西蒲区",
    "住所":"新潟市西蒲区今井7-3",
    "店コード":279,
    "電話番号":"0256-86-2207",
    "テイクアウト":"有り",
    "デリバリー":"有り"
    }
  },
  {
    "type": "Feature",
    "geometry": {
       "type": "Point",
       "coordinates":  [ 139.058105,37.912704 ]
    },
    "properties": {
    "店名":"駅前漁港",
    "ジャンル":"居酒屋",
    "区域":"中央区",
    "住所":"新潟市中央区弁天1-3-29",
    "店コード":280,
    "電話番号":"025-244-8555",
    "テイクアウト":"有り",
    "デリバリー":"無し"
    }
  },
  {
    "type": "Feature",
    "geometry": {
       "type": "Point",
       "coordinates":  [ 139.037735,37.915577 ]
    },
    "properties": {
    "店名":"駅前漁港炙りや",
    "ジャンル":"居酒屋",
    "区域":"中央区",
    "住所":"新潟市中央区花園1-5-5鳴海ビル1階",
    "店コード":281,
    "電話番号":"025-248-9555",
    "テイクアウト":"有り",
    "デリバリー":"無し"
    }
  },
  {
    "type": "Feature",
    "geometry": {
       "type": "Point",
       "coordinates":  [ 138.854416,37.443989 ]
    },
    "properties": {
    "店名":"（有）木乃間鮨総本店",
    "ジャンル":"寿司",
    "区域":"長岡市",
    "住所":"長岡市台町1-3-10",
    "店コード":282,
    "電話番号":"0258-34-1432",
    "テイクアウト":"有り",
    "デリバリー":"有り"
    }
  },
  {
    "type": "Feature",
    "geometry": {
       "type": "Point",
       "coordinates":  [ 138.526001,37.321712 ]
    },
    "properties": {
    "店名":"コメダ珈琲店柏崎店",
    "ジャンル":"喫茶",
    "区域":"柏崎市",
    "住所":"柏崎市大字鯨波1590-9",
    "店コード":283,
    "電話番号":"0257-32-0016",
    "テイクアウト":"有り",
    "デリバリー":"無し"
    }
  },
  {
    "type": "Feature",
    "geometry": {
       "type": "Point",
       "coordinates":  [ 139.114716,37.923557 ]
    },
    "properties": {
    "店名":"春夏秋冬東店",
    "ジャンル":"居酒屋",
    "区域":"東区",
    "住所":"新潟市東区逢谷内6-9-22",
    "店コード":284,
    "電話番号":"025-256-8680",
    "テイクアウト":"有り",
    "デリバリー":"無し"
    }
  },
  {
    "type": "Feature",
    "geometry": {
       "type": "Point",
       "coordinates":  [ 139.210129,37.920517 ]
    },
    "properties": {
    "店名":"春夏秋冬豊栄店",
    "ジャンル":"居酒屋",
    "区域":"北区",
    "住所":"新潟市北区柳原2-9-15",
    "店コード":285,
    "電話番号":"025-290-7722",
    "テイクアウト":"有り",
    "デリバリー":"無し"
    }
  },
  {
    "type": "Feature",
    "geometry": {
       "type": "Point",
       "coordinates":  [ 139.403534,38.053635 ]
    },
    "properties": {
    "店名":"春夏秋冬胎内店",
    "ジャンル":"居酒屋",
    "区域":"胎内市",
    "住所":"胎内市西本町18-51-2",
    "店コード":286,
    "電話番号":"0254-28-8854",
    "テイクアウト":"有り",
    "デリバリー":"無し"
    }
  },
  {
    "type": "Feature",
    "geometry": {
       "type": "Point",
       "coordinates":  [ 138.968903,37.630142 ]
    },
    "properties": {
    "店名":"遊亀楼魚兵",
    "ジャンル":"割烹",
    "区域":"三条市",
    "住所":"三条市一ノ門1-2-17",
    "店コード":287,
    "電話番号":"0256-33-0261",
    "テイクアウト":"有り",
    "デリバリー":"有り"
    }
  },
  {
    "type": "Feature",
    "geometry": {
       "type": "Point",
       "coordinates":  [ 139.060806,37.909214 ]
    },
    "properties": {
    "店名":"FISHERMAN'SMARKETOYSTERBAR",
    "ジャンル":"洋食",
    "区域":"中央区",
    "住所":"新潟市中央区米山1-7-8",
    "店コード":288,
    "電話番号":"025-282-7791",
    "テイクアウト":"有り",
    "デリバリー":"無し"
    }
  },
  {
    "type": "Feature",
    "geometry": {
       "type": "Point",
       "coordinates":  [ 138.842758,37.625412 ]
    },
    "properties": {
    "店名":"レストランオレンジ",
    "ジャンル":"洋食",
    "区域":"燕市",
    "住所":"燕市分水栄町3-14",
    "店コード":289,
    "電話番号":"0256-98-3016",
    "テイクアウト":"有り",
    "デリバリー":"有り"
    }
  },
  {
    "type": "Feature",
    "geometry": {
       "type": "Point",
       "coordinates":  [ 139.045395,37.919434 ]
    },
    "properties": {
    "店名":"BISTROMARQUE",
    "ジャンル":"フレンチ",
    "区域":"中央区",
    "住所":"新潟市中央区東堀前通5-417-1トーカンマンション東堀1F",
    "店コード":290,
    "電話番号":"025-201-9507",
    "テイクアウト":"有り",
    "デリバリー":"無し"
    }
  },
  {
    "type": "Feature",
    "geometry": {
       "type": "Point",
       "coordinates":  [ 138.924149,37.167416 ]
    },
    "properties": {
    "店名":"ファミリーダイニング小玉屋",
    "ジャンル":"和食",
    "区域":"南魚沼市",
    "住所":"南魚沼市浦佐1355-1",
    "店コード":291,
    "電話番号":"025-777-2072",
    "テイクアウト":"有り",
    "デリバリー":"有り"
    }
  },
  {
    "type": "Feature",
    "geometry": {
       "type": "Point",
       "coordinates":  [ 138.758148,37.134808 ]
    },
    "properties": {
    "店名":"和食松喜屋",
    "ジャンル":"和食",
    "区域":"十日町市",
    "住所":"十日町市昭和町4-156-21",
    "店コード":292,
    "電話番号":"025-752-2510",
    "テイクアウト":"有り",
    "デリバリー":"有り"
    }
  },
  {
    "type": "Feature",
    "geometry": {
       "type": "Point",
       "coordinates":  [ 138.877975,37.065247 ]
    },
    "properties": {
    "店名":"リトル北海道",
    "ジャンル":"寿司",
    "区域":"南魚沼市",
    "住所":"南魚沼市六日町117-1",
    "店コード":293,
    "電話番号":"025-778-0228",
    "テイクアウト":"有り",
    "デリバリー":"有り"
    }
  },
  {
    "type": "Feature",
    "geometry": {
       "type": "Point",
       "coordinates":  [ 138.878601,37.066319 ]
    },
    "properties": {
    "店名":"魚沼釜蔵総本店",
    "ジャンル":"居酒屋",
    "区域":"南魚沼市",
    "住所":"南魚沼市六日町105-1サンプラザビル2Ｆ",
    "店コード":294,
    "電話番号":"025-781-5660",
    "テイクアウト":"有り",
    "デリバリー":"無し"
    }
  },
  {
    "type": "Feature",
    "geometry": {
       "type": "Point",
       "coordinates":  [ 138.852875,37.26334 ]
    },
    "properties": {
    "店名":"越後川口サービスエリア上りレストラン越後川口",
    "ジャンル":"和食",
    "区域":"長岡市",
    "住所":"長岡市西川口字沢入4375",
    "店コード":295,
    "電話番号":"0258-89-2100",
    "テイクアウト":"無し",
    "デリバリー":"無し"
    }
  },
  {
    "type": "Feature",
    "geometry": {
       "type": "Point",
       "coordinates":  [ 138.852875,37.26334 ]
    },
    "properties": {
    "店名":"越後交通株式会社レストラン越後川口第2スナックコーナー",
    "ジャンル":"軽食",
    "区域":"長岡市",
    "住所":"長岡市西川口字沢入4375",
    "店コード":296,
    "電話番号":"0258-89-2100",
    "テイクアウト":"有り",
    "デリバリー":"無し"
    }
  },
  {
    "type": "Feature",
    "geometry": {
       "type": "Point",
       "coordinates":  [ 138.885117,37.549732 ]
    },
    "properties": {
    "店名":"ザ・ガーデンプレイス小林樓",
    "ジャンル":"その他",
    "区域":"見附市",
    "住所":"見附市今町2-4-38",
    "店コード":297,
    "電話番号":"0258-66-3155",
    "テイクアウト":"有り",
    "デリバリー":"有り"
    }
  },
  {
    "type": "Feature",
    "geometry": {
       "type": "Point",
       "coordinates":  [ 138.244705,37.109741 ]
    },
    "properties": {
    "店名":"藤作別館",
    "ジャンル":"割烹",
    "区域":"上越市",
    "住所":"上越市本町3-2-29",
    "店コード":298,
    "電話番号":"025-520-8841",
    "テイクアウト":"有り",
    "デリバリー":"有り"
    }
  },